[{"name":"Ocean Reef Club Airport","lat":25.3254,"lng":-80.2748,"iata":"OCA","type":"medium","country":"US","city":"Key Largo"},{"name":"Aleknagik / New Airport","lat":59.2826,"lng":-158.618,"iata":"WKK","type":"medium","country":"US","city":"Aleknagik"},{"name":"Sas Al Nakheel Air Base","lat":24.4413,"lng":54.517,"iata":"","type":"medium","country":"AE","city":"Sas Al Nakheel"},{"name":"Burton-Nibbs International Airport","lat":17.6212,"lng":-61.7983,"iata":"BBQ","type":"medium","country":"AG","city":"Codrington"},{"name":"Honiara International Airport","lat":-9.428,"lng":160.055,"iata":"HIR","type":"large","country":"SB","city":"Honiara"},{"name":"Munda Airport","lat":-8.328,"lng":157.263,"iata":"MUA","type":"medium","country":"SB","city":"Munda"},{"name":"Nauru International Airport","lat":-0.5479,"lng":166.9195,"iata":"INU","type":"medium","country":"NR","city":"Yaren"},{"name":"Grandfather Skiway","lat":-77.5302,"lng":-31.8274,"iata":"","type":"medium","country":"AQ","city":"Antartica"},{"name":"Boulder Clay Runway","lat":-74.7394,"lng":164.0354,"iata":"","type":"medium","country":"AQ","city":"Zucchelli Station"},{"name":"Chamical Airport","lat":-30.3453,"lng":-66.2941,"iata":"","type":"medium","country":"AR","city":"Gobernador Gordillo"},{"name":"Aeroestación Yabotí","lat":-27.1803,"lng":-54.1074,"iata":"","type":"medium","country":"AR","city":"El Soberbio"},{"name":"[Duplicate] Aeropuerto Pergamino","lat":-33.896,"lng":-60.5748,"iata":"","type":"medium","country":"AR","city":""},{"name":"Concordia Skyway","lat":-75.1033,"lng":123.3582,"iata":"","type":"medium","country":"AQ","city":"Concordia Station"},{"name":"Vostok Skiway","lat":-78.4661,"lng":106.8482,"iata":"","type":"medium","country":"AQ","city":"Vostok Station"},{"name":"[Duplicate] Wolf's Fang Runway","lat":-71.5264,"lng":8.7995,"iata":"WFR","type":"medium","country":"AQ","city":"Queen Maud Island"},{"name":"Nackeroo Airfield","lat":-15.578,"lng":130.476,"iata":"","type":"medium","country":"AU","city":""},{"name":"[Duplicate] Western Sydney International Airport","lat":-33.8881,"lng":150.7147,"iata":"","type":"large","country":"AU","city":"Sydney"},{"name":"Alxa Left Banner Bayanhot Airport","lat":38.7483,"lng":105.5842,"iata":"AXF","type":"medium","country":"CN","city":"Bayanhot"},{"name":"Baimuru Airport","lat":-7.497,"lng":144.8218,"iata":"VMU","type":"medium","country":"PG","city":"Baimuru"},{"name":"Buka Airport","lat":-5.4223,"lng":154.6727,"iata":"BUA","type":"medium","country":"PG","city":"Buka Island"},{"name":"Balimo Airport","lat":-8.05,"lng":142.933,"iata":"OPU","type":"medium","country":"PG","city":"Balimo"},{"name":"Chimbu Airport","lat":-6.0243,"lng":144.971,"iata":"CMU","type":"medium","country":"PG","city":"Kundiawa"},{"name":"Daru Airport","lat":-9.0868,"lng":143.208,"iata":"DAU","type":"medium","country":"PG","city":"Daru"},{"name":"Goroka Airport","lat":-6.0817,"lng":145.392,"iata":"GKA","type":"medium","country":"PG","city":"Goronka"},{"name":"Gurney Airport","lat":-10.3115,"lng":150.334,"iata":"GUR","type":"medium","country":"PG","city":"Gurney"},{"name":"Girua Airport","lat":-8.8045,"lng":148.309,"iata":"PNP","type":"medium","country":"PG","city":"Popondetta"},{"name":"Hoskins Airport","lat":-5.4638,"lng":150.4073,"iata":"HKN","type":"medium","country":"PG","city":"Kimbe"},{"name":"Kerema Airport","lat":-7.9636,"lng":145.771,"iata":"KMA","type":"medium","country":"PG","city":"Kerema"},{"name":"Kavieng Airport","lat":-2.5794,"lng":150.808,"iata":"KVG","type":"medium","country":"PG","city":"Kavieng"},{"name":"Madang Airport","lat":-5.2071,"lng":145.789,"iata":"MAG","type":"medium","country":"PG","city":"Madang"},{"name":"Mount Hagen Kagamuga Airport","lat":-5.8282,"lng":144.2994,"iata":"HGU","type":"medium","country":"PG","city":"Mount Hagen"},{"name":"Mendi Airport","lat":-6.1477,"lng":143.657,"iata":"MDU","type":"medium","country":"PG","city":"Mendi"},{"name":"Momote Airport","lat":-2.0619,"lng":147.424,"iata":"MAS","type":"medium","country":"PG","city":"Manus Island"},{"name":"Nadzab Tomodachi International Airport","lat":-6.568,"lng":146.7265,"iata":"LAE","type":"large","country":"PG","city":"Lae"},{"name":"Port Moresby Jacksons International Airport","lat":-9.4434,"lng":147.22,"iata":"POM","type":"large","country":"PG","city":"Port Moresby"},{"name":"Tokua Airport","lat":-4.3405,"lng":152.38,"iata":"RAB","type":"medium","country":"PG","city":"Kokopo"},{"name":"Vanimo Airport","lat":-2.6926,"lng":141.3028,"iata":"VAI","type":"medium","country":"PG","city":"Vanimo"},{"name":"Wapenamanda Airport","lat":-5.6353,"lng":143.8922,"iata":"WBM","type":"medium","country":"PG","city":"Wapenamanda"},{"name":"Wewak International Airport","lat":-3.5838,"lng":143.669,"iata":"WWK","type":"medium","country":"PG","city":"Wewak"},{"name":"Zabrat Airport","lat":40.4949,"lng":49.9771,"iata":"ZXT","type":"medium","country":"AZ","city":"Zabrat"},{"name":"Sitalchay Airbase","lat":40.8073,"lng":49.4315,"iata":"","type":"medium","country":"AZ","city":"Sitalchay"},{"name":"Qizilagach Air Base","lat":39.0062,"lng":48.8063,"iata":"","type":"medium","country":"AZ","city":"Qizilagach"},{"name":"Benguera Island Airport","lat":-21.8533,"lng":35.4383,"iata":"BCW","type":"medium","country":"MZ","city":"Benguera Island"},{"name":"Bezmer Air Base","lat":42.4549,"lng":26.3522,"iata":"JAM","type":"medium","country":"BG","city":"Bezmer"},{"name":"Aasiaat Airport","lat":68.7218,"lng":-52.7847,"iata":"JEG","type":"medium","country":"GL","city":"Aasiaat"},{"name":"Neerlerit Inaat Airport","lat":70.7431,"lng":-22.6505,"iata":"CNP","type":"medium","country":"GL","city":"Neerlerit Inaat"},{"name":"Nuuk International Airport","lat":64.1911,"lng":-51.6791,"iata":"GOH","type":"large","country":"GL","city":"Nuuk"},{"name":"Ilulissat Airport","lat":69.2432,"lng":-51.0571,"iata":"JAV","type":"medium","country":"GL","city":"Ilulissat"},{"name":"Kulusuk Airport","lat":65.5736,"lng":-37.1236,"iata":"KUS","type":"medium","country":"GL","city":"Kulusuk"},{"name":"Qaanaaq Airport","lat":77.4886,"lng":-69.3887,"iata":"NAQ","type":"medium","country":"GL","city":"Qaanaaq"},{"name":"Kangerlussuaq International Airport","lat":67.0104,"lng":-50.7153,"iata":"SFJ","type":"medium","country":"GL","city":"Kangerlussuaq"},{"name":"Sisimiut Airport","lat":66.9513,"lng":-53.7293,"iata":"JHS","type":"medium","country":"GL","city":"Sisimiut"},{"name":"Pituffik Space Base","lat":76.5306,"lng":-68.7005,"iata":"THU","type":"medium","country":"GL","city":"Pituffik"},{"name":"Akureyri International Airport","lat":65.6566,"lng":-18.072,"iata":"AEY","type":"large","country":"IS","city":"Akureyri"},{"name":"Bildudalur Airport","lat":65.6413,"lng":-23.5462,"iata":"BIU","type":"medium","country":"IS","city":"Bildudalur"},{"name":"Egilsstaðir Airport","lat":65.2833,"lng":-14.4014,"iata":"EGS","type":"medium","country":"IS","city":"Egilsstaðir"},{"name":"Grímsey Airport","lat":66.5458,"lng":-18.0173,"iata":"GRY","type":"medium","country":"IS","city":"Grímsey/Sandvík"},{"name":"Hornafjörður Airport","lat":64.2956,"lng":-15.2272,"iata":"HFN","type":"medium","country":"IS","city":"Höfn"},{"name":"Húsavík Airport","lat":65.9523,"lng":-17.426,"iata":"HZK","type":"medium","country":"IS","city":"Húsavík"},{"name":"Ísafjörður Airport","lat":66.0581,"lng":-23.1353,"iata":"IFJ","type":"medium","country":"IS","city":"Ísafjörður"},{"name":"Keflavik International Airport","lat":63.985,"lng":-22.6056,"iata":"KEF","type":"large","country":"IS","city":"Reykjavík"},{"name":"Reykjavík Domestic Airport","lat":64.1287,"lng":-21.9376,"iata":"RKV","type":"medium","country":"IS","city":"Reykjavík"},{"name":"Mývatn Airport","lat":65.6558,"lng":-16.9181,"iata":"MVA","type":"medium","country":"IS","city":"Myvatn"},{"name":"Siglufjörður Airport","lat":66.1378,"lng":-18.9082,"iata":"SIJ","type":"medium","country":"IS","city":"Siglufjörður"},{"name":"Vestmannaeyjar Airport","lat":63.4243,"lng":-20.2789,"iata":"VEY","type":"medium","country":"IS","city":"Vestmannaeyjar"},{"name":"Vopnafjörður Airport","lat":65.7206,"lng":-14.8506,"iata":"VPN","type":"medium","country":"IS","city":"Vopnafjörður"},{"name":"Tourou International Airport","lat":9.3912,"lng":2.5073,"iata":"","type":"large","country":"BJ","city":"Parakou"},{"name":"Priština Adem Jashari International Airport","lat":42.5728,"lng":21.0358,"iata":"PRN","type":"large","country":"XK","city":"Prishtina"},{"name":"Glauber de Andrade Rocha Airport","lat":-14.9079,"lng":-40.9148,"iata":"VDC","type":"medium","country":"BR","city":"Vitória da Conquista"},{"name":"Russas - João de Deus Regional Airport","lat":-4.9473,"lng":-38.0082,"iata":"","type":"medium","country":"BR","city":"Russas"},{"name":"Betong International Airport","lat":5.79,"lng":101.15,"iata":"BTZ","type":"medium","country":"TH","city":"Betong"},{"name":"Orsha Airport - Balbasovo Air Base","lat":54.44,"lng":30.2967,"iata":"TXC","type":"medium","country":"BY","city":"Orsha"},{"name":"Osovtsy Air Base","lat":52.557,"lng":24.884,"iata":"","type":"medium","country":"BY","city":"Byaroza"},{"name":"Caye Caulker Airport","lat":17.735,"lng":-88.0329,"iata":"CUK","type":"medium","country":"BZ","city":"Caye Caulker"},{"name":"Caye Chapel Airport","lat":17.6838,"lng":-88.045,"iata":"CYC","type":"medium","country":"BZ","city":"Caye Chapel"},{"name":"Corozal Airport","lat":18.3822,"lng":-88.4119,"iata":"CZH","type":"medium","country":"BZ","city":"Corozal"},{"name":"Dangriga Airport","lat":16.9825,"lng":-88.231,"iata":"DGA","type":"medium","country":"BZ","city":"Dangriga"},{"name":"Sartaneja Airport","lat":18.3561,"lng":-88.1308,"iata":"SJX","type":"medium","country":"BZ","city":"Sartaneja"},{"name":"John Greif II Airport","lat":17.9139,"lng":-87.9711,"iata":"SPR","type":"medium","country":"BZ","city":"San Pedro"},{"name":"Sir Barry Bowen Municipal Airport","lat":17.5172,"lng":-88.1958,"iata":"TZA","type":"medium","country":"BZ","city":"Belize City"},{"name":"Bazaruto Island Airport","lat":-21.5411,"lng":35.4729,"iata":"BZB","type":"medium","country":"MZ","city":"Bazaruto Island"},{"name":"Anahim Lake Airport","lat":52.4515,"lng":-125.3038,"iata":"YAA","type":"medium","country":"CA","city":"Anahim Lake"},{"name":"Qualicum Beach Airport","lat":49.3375,"lng":-124.3931,"iata":"XQU","type":"medium","country":"CA","city":"Qualicum Beach"},{"name":"Cache Creek-Ashcroft Regional Airport","lat":50.7753,"lng":-121.3213,"iata":"YZA","type":"medium","country":"CA","city":"Cache Creek"},{"name":"Bella Bella (Campbell Island) Airport","lat":52.185,"lng":-128.157,"iata":"ZEL","type":"medium","country":"CA","city":"Bella Bella"},{"name":"Laohutun Air Base","lat":39.67,"lng":121.766,"iata":"","type":"medium","country":"CN","city":"Dalian (Wafangdian)"},{"name":"Pulandian Air Base","lat":39.4509,"lng":122.018,"iata":"","type":"medium","country":"CN","city":"Dalian (Pulandian)"},{"name":"Beijing Shahezhen Air Base","lat":40.1492,"lng":116.3214,"iata":"","type":"medium","country":"CN","city":"Beijing"},{"name":"Beijing Tongxian Air Base","lat":39.8111,"lng":116.7083,"iata":"","type":"medium","country":"CN","city":"Beijing"},{"name":"Fengning Air Base","lat":41.2608,"lng":116.618,"iata":"","type":"medium","country":"CN","city":""},{"name":"Hohhot Bikeqi Air Base","lat":40.737,"lng":111.2297,"iata":"","type":"medium","country":"CN","city":"Hohhot"},{"name":"Huairen Air Base","lat":39.7175,"lng":113.143,"iata":"","type":"medium","country":"CN","city":"Shuozhou"},{"name":"Liangxiangzhen Air Base","lat":39.7578,"lng":116.126,"iata":"","type":"medium","country":"CN","city":"Beijing"},{"name":"Tangguantun Air Base","lat":38.7811,"lng":117.068,"iata":"","type":"medium","country":"CN","city":"Jinghai"},{"name":"Wenshui Air Base","lat":37.4078,"lng":111.966,"iata":"","type":"medium","country":"CN","city":"Lüliang"},{"name":"Yangcun Air Base","lat":39.3733,"lng":117.095,"iata":"","type":"medium","country":"CN","city":""},{"name":"Yongning Air Base","lat":40.5031,"lng":116.108,"iata":"","type":"medium","country":"CN","city":"Yongning"},{"name":"Tangshan Zunhua Air Base","lat":40.1025,"lng":117.887,"iata":"","type":"medium","country":"CN","city":"Tangshan"},{"name":"Chengdu Huangtianba Air Base","lat":30.7053,"lng":103.95,"iata":"","type":"medium","country":"CN","city":"Chengdu (Qingyang)"},{"name":"Chongqing Baishiyi Air Base","lat":29.4953,"lng":106.359,"iata":"","type":"medium","country":"CN","city":"Chongqing"},{"name":"Luliang Air Base","lat":24.9882,"lng":103.6428,"iata":"","type":"medium","country":"CN","city":"Qujing (Luliang)"},{"name":"Honghe Mengzi Airport / Mengzi Air Base","lat":23.3953,"lng":103.334,"iata":"","type":"medium","country":"CN","city":"Honghe"},{"name":"Qionglai Air Base","lat":30.491,"lng":103.4661,"iata":"","type":"medium","country":"CN","city":"Chengdu (Qionglai)"},{"name":"Wenshan Air Base","lat":23.7156,"lng":103.827,"iata":"","type":"medium","country":"CN","city":""},{"name":"Xiangyun Midu Air Base","lat":25.4453,"lng":100.735,"iata":"","type":"medium","country":"CN","city":"Dali (Xiangyun)"},{"name":"Baihe Ningming Air Base","lat":22.1205,"lng":107.125,"iata":"","type":"medium","country":"CN","city":"Ningming"},{"name":"Changsha Datuopu Airport / Changsha Air Base","lat":28.0685,"lng":112.9573,"iata":"","type":"medium","country":"CN","city":"Changsha (Tianxin)"},{"name":"Dangyang Air Base","lat":30.7986,"lng":111.81,"iata":"","type":"medium","country":"CN","city":"Yichang (Dangyang)"},{"name":"Foluo Northeast Air Base","lat":18.6922,"lng":109.161,"iata":"","type":"medium","country":"CN","city":"Ledong (Da'anzhen)"},{"name":"Bazhong Enyang Airport","lat":31.7384,"lng":106.6449,"iata":"BZX","type":"medium","country":"CN","city":"Bazhong"},{"name":"Guiping Mengxu Air Base","lat":23.3308,"lng":110.009,"iata":"","type":"medium","country":"CN","city":"Guiping (Guigang)"},{"name":"Jialaishi Air Base","lat":19.6972,"lng":109.726,"iata":"","type":"medium","country":"CN","city":"Lingao (Jialai)"},{"name":"Leiyang Air Base","lat":26.5872,"lng":112.892,"iata":"","type":"medium","country":"CN","city":""},{"name":"Lingshui Air Base","lat":18.4944,"lng":109.988,"iata":"","type":"medium","country":"CN","city":"Lingshui (Huayuan)"},{"name":"Shangqiu Air Base","lat":34.4495,"lng":115.4593,"iata":"","type":"medium","country":"CN","city":"Shangqiu"},{"name":"Zhengzhou Air Base","lat":34.8612,"lng":113.7296,"iata":"","type":"medium","country":"CN","city":"Zhengzhou"},{"name":"Shaoguan Danxia Airport","lat":24.9786,"lng":113.421,"iata":"HSC","type":"medium","country":"CN","city":"Shaoguan"},{"name":"Suixi Air Base","lat":21.3958,"lng":110.2,"iata":"","type":"medium","country":"CN","city":"Zhanjiang (Suixi)"},{"name":"Jinggangshan Airport","lat":26.8569,"lng":114.737,"iata":"JGS","type":"medium","country":"CN","city":"Ji'an"},{"name":"Guodu Air Base","lat":36.0004,"lng":117.6258,"iata":"","type":"medium","country":"CN","city":"Xintai, Tai'an"},{"name":"Xiaogan Air Base","lat":30.9536,"lng":113.9118,"iata":"","type":"medium","country":"CN","city":"Xiaogan (Xiaonan)"},{"name":"Cangxian Air Base","lat":38.403,"lng":116.9309,"iata":"","type":"medium","country":"CN","city":"Cangzhou"},{"name":"Jiaozhou Jiaocheng Air Base","lat":36.3312,"lng":120.0255,"iata":"","type":"medium","country":"CN","city":"Qingdao (Jiaozhou)"},{"name":"Jiugucheng Air Base","lat":37.4912,"lng":116.1167,"iata":"","type":"medium","country":"CN","city":"Hengshui"},{"name":"Kaifeng Air Base","lat":34.7539,"lng":114.339,"iata":"","type":"medium","country":"CN","city":"Kaifeng"},{"name":"Laiyang Air Base","lat":36.9636,"lng":120.591,"iata":"","type":"medium","country":"CN","city":"Yantai"},{"name":"Luyang Air Base","lat":33.6854,"lng":112.8905,"iata":"","type":"medium","country":"CN","city":"Xuchang (Pingdingshan)"},{"name":"Xuzhou Daguozhang Air Base","lat":34.2293,"lng":117.2457,"iata":"","type":"medium","country":"CN","city":"Xuzhou"},{"name":"Zhucheng Air Base","lat":36.0275,"lng":119.4378,"iata":"","type":"medium","country":"CN","city":"Weifang (Zhucheng)"},{"name":"Baoji Air Base","lat":34.5312,"lng":107.4707,"iata":"","type":"medium","country":"CN","city":"Baoji (Fengxiang)"},{"name":"Hainanzhou Gonghe Airport","lat":36.3367,"lng":100.48,"iata":"HNG","type":"medium","country":"CN","city":"Hainan (Gonghe)"},{"name":"Huangdicun Naval Air Base","lat":40.4998,"lng":120.6593,"iata":"","type":"medium","country":"CN","city":"Huludao"},{"name":"Lanzhou Air Base","lat":35.9178,"lng":104.218,"iata":"","type":"medium","country":"CN","city":"Lanzhou (Yuzhong)"},{"name":"Lintao Air Base","lat":35.3083,"lng":103.836,"iata":"","type":"medium","country":"CN","city":"Dingxi (Lintao)"},{"name":"Qingshui Air Base","lat":39.5547,"lng":98.8842,"iata":"","type":"medium","country":"CN","city":"Jiuquan (Suzhou)"},{"name":"Ürümqi South Air Base","lat":43.4666,"lng":87.5312,"iata":"","type":"medium","country":"CN","city":"Ürümqi"},{"name":"Malan Air Base","lat":42.1806,"lng":87.1868,"iata":"","type":"medium","country":"CN","city":"Hoxud, Bayingolin"},{"name":"Wugong Air Base","lat":34.2759,"lng":108.2658,"iata":"","type":"medium","country":"CN","city":"Xianyang (Wugong)"},{"name":"Ürümqi Changji Air Base","lat":43.9512,"lng":87.0792,"iata":"","type":"medium","country":"CN","city":"Ashilixiang"},{"name":"Wuwei Air Base","lat":37.9883,"lng":102.567,"iata":"","type":"medium","country":"CN","city":"Wuwei"},{"name":"Xi'an Air Base","lat":34.1531,"lng":108.5997,"iata":"","type":"medium","country":"CN","city":"Xi'an (Huyi)"},{"name":"Xincheng Air Base","lat":25.5483,"lng":114.619,"iata":"","type":"medium","country":"CN","city":"Ganzhou"},{"name":"Yaerbashi Test Range","lat":43.0772,"lng":92.8081,"iata":"","type":"medium","country":"CN","city":"Yizhou, Hami"},{"name":"Yanliang Air Base","lat":34.6422,"lng":109.2419,"iata":"","type":"medium","country":"CN","city":"Xi'an (Yanliang)"},{"name":"Daishan Air Base","lat":30.2876,"lng":122.1444,"iata":"","type":"medium","country":"CN","city":"Zhoushan"},{"name":"Feidong Air Base","lat":31.9094,"lng":117.659,"iata":"","type":"medium","country":"CN","city":"Hefei"},{"name":"Fuzhou Air Base","lat":26.0039,"lng":119.3128,"iata":"","type":"medium","country":"CN","city":"Fuzhou (Cangshan)"},{"name":"Huian Air Base","lat":25.0261,"lng":118.807,"iata":"","type":"medium","country":"CN","city":"Quanzhou (Huian)"},{"name":"Hangzhou Jianqiao Airport","lat":30.3353,"lng":120.241,"iata":"","type":"medium","country":"CN","city":"Hangzhou"},{"name":"Jiaxing Nanhu Airport","lat":30.6981,"lng":120.6631,"iata":"JNH","type":"medium","country":"CN","city":"Xiuzhou, Hangzhou"},{"name":"Longtian Air Base","lat":25.5728,"lng":119.46,"iata":"","type":"medium","country":"CN","city":"Fuzhou (Fuqing)"},{"name":"Nanchang Xiangtang Air Base","lat":28.4212,"lng":115.9234,"iata":"","type":"medium","country":"CN","city":"Nanchang"},{"name":"Ningbo Zhuangqiao Air Base","lat":29.9228,"lng":121.574,"iata":"","type":"medium","country":"CN","city":"Ningbo"},{"name":"Shanghai Dachang Air Base","lat":31.3244,"lng":121.4095,"iata":"","type":"medium","country":"CN","city":"Shanghai (Baoshan)"},{"name":"Wuhan Hannan Municipal Airport","lat":30.2552,"lng":114.0628,"iata":"WHN","type":"medium","country":"CN","city":"Wuhan (Hannan)"},{"name":"Zhangshu Air Base","lat":28.0233,"lng":115.5496,"iata":"","type":"medium","country":"CN","city":"Yichun"},{"name":"Changchun Air Base","lat":43.9066,"lng":125.197,"iata":"","type":"medium","country":"CN","city":"Changchun"},{"name":"Beijing Nanjiao Airport","lat":39.4828,"lng":116.3723,"iata":"","type":"medium","country":"CN","city":"Beijing"},{"name":"Dingxin-Shuangchengzi Air Base","lat":40.4014,"lng":99.7894,"iata":"","type":"medium","country":"CN","city":"Jiuquan (Jinta)"},{"name":"Fuxin Air Base","lat":42.0789,"lng":121.662,"iata":"","type":"medium","country":"CN","city":"Xihe, Fuxin"},{"name":"Gongzhuling Air Base","lat":43.5263,"lng":124.7847,"iata":"","type":"medium","country":"CN","city":"Siping"},{"name":"Kaiyuan Air Base","lat":42.5259,"lng":123.9847,"iata":"","type":"medium","country":"CN","city":"Qinghe, Tieling"},{"name":"Lalin Air Base","lat":45.2595,"lng":126.8935,"iata":"","type":"medium","country":"CN","city":"Harbin"},{"name":"Pingquan Air Base","lat":40.9004,"lng":118.6779,"iata":"","type":"medium","country":"CN","city":"Chengde"},{"name":"Shenyang Beiling Air Base","lat":41.8708,"lng":123.439,"iata":"","type":"medium","country":"CN","city":"Huanggu, Shenyang"},{"name":"Shenyang Yuhong Quansheng Airport","lat":41.8225,"lng":123.299,"iata":"","type":"medium","country":"CN","city":"Yuhong, Shenyang"},{"name":"Siping Air Base","lat":43.1569,"lng":124.292,"iata":"","type":"medium","country":"CN","city":"Siping"},{"name":"Suizhong Air Base","lat":40.299,"lng":120.3615,"iata":"","type":"medium","country":"CN","city":"Huludao (Suizhong)"},{"name":"Tuchengzi Air Base","lat":38.9122,"lng":121.239,"iata":"","type":"medium","country":"CN","city":"Dalian (Lüshunkou)"},{"name":"Shigatse Tingri Airport","lat":28.6046,"lng":86.798,"iata":"DDR","type":"medium","country":"CN","city":"Xigazê (Dingri)"},{"name":"Tashikuergan Hongqilafu Airport","lat":37.6613,"lng":75.2889,"iata":"HQL","type":"medium","country":"CN","city":"Tashikuergan"},{"name":"Jiande Qiandaohu General Airport","lat":29.3609,"lng":119.1808,"iata":"JDE","type":"medium","country":"CN","city":"Hangzhou"},{"name":"Sanya Air Base","lat":18.2875,"lng":109.4637,"iata":"","type":"medium","country":"CN","city":"Sanya (Tianya)"},{"name":"Chenghu General Airport","lat":31.2153,"lng":120.7893,"iata":"","type":"medium","country":"CN","city":"Suzhou"},{"name":"Anji Tianzihu General Airport","lat":30.7977,"lng":119.5903,"iata":"","type":"medium","country":"CN","city":"Anji"},{"name":"Jiuzhou Airport","lat":26.9984,"lng":107.759,"iata":"","type":"medium","country":"CN","city":"Jiuzhou"},{"name":"Paozhuwan Air Base","lat":30.6739,"lng":114.6309,"iata":"","type":"medium","country":"CN","city":"Wuhan (Xinzhou)"},{"name":"Shanpo Air Base","lat":30.0876,"lng":114.3137,"iata":"","type":"medium","country":"CN","city":"Wuhan"},{"name":"Ali Pulan Airport","lat":30.3979,"lng":81.1332,"iata":"APJ","type":"medium","country":"CN","city":"Burang Town"},{"name":"Shaodong Airport","lat":27.2235,"lng":111.6741,"iata":"","type":"medium","country":"CN","city":"Shaoyang (Shaodong)"},{"name":"Ningxiang Airport","lat":27.9876,"lng":112.605,"iata":"","type":"medium","country":"CN","city":""},{"name":"Hohhot Shengle International Airport (under construction)","lat":40.481,"lng":111.5752,"iata":"","type":"medium","country":"CN","city":"Hohhot"},{"name":"Zhaotong Zhaoyang Airport （Not fully opened)","lat":27.2058,"lng":103.6915,"iata":"ZAT","type":"medium","country":"CN","city":"Zhaotong"},{"name":"Bengbu Tenghu Airport","lat":33.1663,"lng":117.0583,"iata":"BFY","type":"medium","country":"CN","city":"Bengbu"},{"name":"[Duplicate] Beijing Xijiao Airport","lat":39.9586,"lng":116.2568,"iata":"","type":"medium","country":"CN","city":"Beijing"},{"name":"Hancheng Heyang Airport","lat":35.3291,"lng":110.3829,"iata":"","type":"medium","country":"CN","city":"Zhiyang Town"},{"name":"Sanshilipu Air Base","lat":39.2897,"lng":121.7622,"iata":"","type":"medium","country":"CN","city":"Dalian (Jinzhou)"},{"name":"Brampton-Caledon Airport","lat":43.7603,"lng":-79.875,"iata":"","type":"medium","country":"CA","city":""},{"name":"[Duplicate] Holguín Air Base","lat":20.7864,"lng":-76.3185,"iata":"","type":"medium","country":"CU","city":"Holguin"},{"name":"Fort Frances Municipal Airport","lat":48.6557,"lng":-93.4435,"iata":"YAG","type":"medium","country":"CA","city":"Fort Frances"},{"name":"La Grande-4 Airport","lat":53.7547,"lng":-73.6753,"iata":"YAH","type":"medium","country":"CA","city":"La Grande-4"},{"name":"Sault Ste Marie Airport","lat":46.4832,"lng":-84.5085,"iata":"YAM","type":"medium","country":"CA","city":"Sault Ste Marie"},{"name":"Kasabonika Airport","lat":53.5247,"lng":-88.6428,"iata":"XKS","type":"medium","country":"CA","city":"Kasabonika"},{"name":"Winnipeg / St. Andrews Airport","lat":50.0564,"lng":-97.0325,"iata":"","type":"medium","country":"CA","city":"Winnipeg/Saint Andrews"},{"name":"Lac du Bonnet Airport","lat":50.2944,"lng":-96.01,"iata":"","type":"medium","country":"CA","city":"Lac du Bonnet"},{"name":"St. Anthony Airport","lat":51.3919,"lng":-56.0832,"iata":"YAY","type":"medium","country":"CA","city":"St. Anthony"},{"name":"Tofino / Long Beach Airport","lat":49.0798,"lng":-125.7756,"iata":"YAZ","type":"medium","country":"CA","city":"Tofino"},{"name":"Baie-Comeau Airport","lat":49.1325,"lng":-68.2044,"iata":"YBC","type":"medium","country":"CA","city":"Baie-Comeau"},{"name":"Bella Coola Airport","lat":52.3875,"lng":-126.596,"iata":"QBC","type":"medium","country":"CA","city":"Bella Coola"},{"name":"Bonnyville Airport","lat":54.3042,"lng":-110.744,"iata":"YBY","type":"medium","country":"CA","city":"Bonnyville"},{"name":"Saguenay-Bagotville Airport","lat":48.3301,"lng":-70.992,"iata":"YBG","type":"medium","country":"CA","city":"Saguenay"},{"name":"Baker Lake Airport","lat":64.2989,"lng":-96.0778,"iata":"YBK","type":"medium","country":"CA","city":"Baker Lake"},{"name":"Campbell River Airport","lat":49.9508,"lng":-125.271,"iata":"YBL","type":"medium","country":"CA","city":"Campbell River"},{"name":"Brandon Municipal Airport","lat":49.91,"lng":-99.9519,"iata":"YBR","type":"medium","country":"CA","city":"Brandon"},{"name":"Nipawin Airport","lat":53.3325,"lng":-104.008,"iata":"","type":"medium","country":"CA","city":"Nipawin"},{"name":"Calgary / Springbank Airport","lat":51.104,"lng":-114.3694,"iata":"","type":"medium","country":"CA","city":"Calgary"},{"name":"Lourdes-de-Blanc-Sablon Airport","lat":51.4436,"lng":-57.1853,"iata":"YBX","type":"medium","country":"CA","city":"Blanc-Sablon"},{"name":"Cambridge Bay Airport","lat":69.1081,"lng":-105.138,"iata":"YCB","type":"medium","country":"CA","city":"Cambridge Bay"},{"name":"Cornwall Regional Airport","lat":45.0926,"lng":-74.5677,"iata":"YCC","type":"medium","country":"CA","city":"Cornwall"},{"name":"Nanaimo Airport","lat":49.055,"lng":-123.8699,"iata":"YCD","type":"medium","country":"CA","city":"Nanaimo"},{"name":"Centralia / James T. Field Memorial Aerodrome","lat":43.2856,"lng":-81.5083,"iata":"YCE","type":"medium","country":"CA","city":"Huron Park"},{"name":"Castlegar/West Kootenay Regional Airport","lat":49.2964,"lng":-117.632,"iata":"YCG","type":"medium","country":"CA","city":"Castlegar"},{"name":"Miramichi Airport","lat":47.0078,"lng":-65.4492,"iata":"YCH","type":"medium","country":"CA","city":"Miramichi"},{"name":"Charlo Airport","lat":47.9908,"lng":-66.3303,"iata":"YCL","type":"medium","country":"CA","city":"Charlo"},{"name":"Cochrane Airport","lat":49.1056,"lng":-81.0136,"iata":"YCN","type":"medium","country":"CA","city":"Cochrane"},{"name":"Blue River Airport","lat":52.1167,"lng":-119.283,"iata":"","type":"medium","country":"CA","city":"Blue River"},{"name":"Chetwynd Airport","lat":55.6872,"lng":-121.627,"iata":"YCQ","type":"medium","country":"CA","city":"Chetwynd"},{"name":"Dawson City Airport","lat":64.0431,"lng":-139.128,"iata":"YDA","type":"medium","country":"CA","city":"Dawson City"},{"name":"Burwash Airport","lat":61.3711,"lng":-139.041,"iata":"YDB","type":"medium","country":"CA","city":"Burwash Landing"},{"name":"Deer Lake Airport","lat":49.2082,"lng":-57.3961,"iata":"YDF","type":"medium","country":"CA","city":"Deer Lake"},{"name":"Ross River Airport","lat":61.9706,"lng":-132.423,"iata":"XRR","type":"medium","country":"CA","city":"Ross River"},{"name":"Dauphin Barker Airport","lat":51.1008,"lng":-100.052,"iata":"YDN","type":"medium","country":"CA","city":"Dauphin"},{"name":"Dolbeau-Saint-Felicien Airport","lat":48.7785,"lng":-72.375,"iata":"YDO","type":"medium","country":"CA","city":"Dolbeau-Saint-Felicien"},{"name":"Dawson Creek Airport","lat":55.7412,"lng":-120.1833,"iata":"YDQ","type":"medium","country":"CA","city":"Dawson Creek"},{"name":"Huronia Airport","lat":44.6833,"lng":-79.9283,"iata":"","type":"medium","country":"CA","city":"Midland"},{"name":"Edmonton International Airport","lat":53.3097,"lng":-113.58,"iata":"YEG","type":"large","country":"CA","city":"Edmonton"},{"name":"Elliot Lake Municipal Airport","lat":46.3514,"lng":-82.5614,"iata":"YEL","type":"medium","country":"CA","city":"Elliot Lake"},{"name":"Manitoulin East Municipal Airport","lat":45.8424,"lng":-81.8576,"iata":"YEM","type":"medium","country":"CA","city":"Sheguiandah"},{"name":"Estevan Airport","lat":49.2103,"lng":-102.966,"iata":"YEN","type":"medium","country":"CA","city":"Estevan"},{"name":"Edson Airport","lat":53.5789,"lng":-116.465,"iata":"YET","type":"medium","country":"CA","city":"Edson"},{"name":"Inuvik Mike Zubko Airport","lat":68.3042,"lng":-133.483,"iata":"YEV","type":"medium","country":"CA","city":"Inuvik"},{"name":"Amos/Magny Airport","lat":48.5639,"lng":-78.2497,"iata":"YEY","type":"medium","country":"CA","city":"Amos"},{"name":"Iqaluit Airport","lat":63.7564,"lng":-68.5558,"iata":"YFB","type":"medium","country":"CA","city":"Iqaluit"},{"name":"Fredericton International Airport","lat":45.8687,"lng":-66.5299,"iata":"YFC","type":"medium","country":"CA","city":"Fredericton"},{"name":"Brantford Municipal Airport","lat":43.1314,"lng":-80.3425,"iata":"","type":"medium","country":"CA","city":"Brantford"},{"name":"Forestville Airport","lat":48.7461,"lng":-69.0972,"iata":"YFE","type":"medium","country":"CA","city":"Forestville"},{"name":"Mont-Tremblant International Airport","lat":46.4094,"lng":-74.78,"iata":"YTM","type":"medium","country":"CA","city":"La Macaza"},{"name":"Fort Resolution Airport","lat":61.1808,"lng":-113.69,"iata":"YFR","type":"medium","country":"CA","city":"Fort Resolution"},{"name":"Fort Simpson Airport","lat":61.7602,"lng":-121.237,"iata":"YFS","type":"medium","country":"CA","city":"Fort Simpson"},{"name":"Goderich Airport","lat":43.7669,"lng":-81.7106,"iata":"","type":"medium","country":"CA","city":"Goderich"},{"name":"Golden Airport","lat":51.2992,"lng":-116.982,"iata":"","type":"medium","country":"CA","city":"Golden"},{"name":"Kingston Norman Rogers Airport","lat":44.2253,"lng":-76.5969,"iata":"YGK","type":"medium","country":"CA","city":"Kingston"},{"name":"La Grande Rivière Airport","lat":53.6253,"lng":-77.7042,"iata":"YGL","type":"medium","country":"CA","city":"La Grande Rivière"},{"name":"Gimli Industrial Park Airport","lat":50.6281,"lng":-97.0433,"iata":"YGM","type":"medium","country":"CA","city":"Gimli"},{"name":"Michel-Pouliot Gaspé Airport","lat":48.7749,"lng":-64.4819,"iata":"YGP","type":"medium","country":"CA","city":"Gaspé"},{"name":"Geraldton Greenstone Regional Airport","lat":49.7783,"lng":-86.9394,"iata":"YGQ","type":"medium","country":"CA","city":"Geraldton"},{"name":"Îles-de-la-Madeleine Airport","lat":47.4252,"lng":-61.7786,"iata":"YGR","type":"medium","country":"CA","city":"Les Îles-de-la-Madeleine"},{"name":"Havre-Saint-Pierre Airport","lat":50.2819,"lng":-63.6114,"iata":"YGV","type":"medium","country":"CA","city":"Havre-Saint-Pierre"},{"name":"Kuujjuarapik Airport","lat":55.2819,"lng":-77.7653,"iata":"YGW","type":"medium","country":"CA","city":"Kuujjuarapik"},{"name":"Dryden Regional Airport","lat":49.8317,"lng":-92.7442,"iata":"YHD","type":"medium","country":"CA","city":"Dryden"},{"name":"Hearst René Fontaine Municipal Airport","lat":49.7142,"lng":-83.6861,"iata":"YHF","type":"medium","country":"CA","city":"Hearst"},{"name":"John C. Munro Hamilton International Airport","lat":43.1735,"lng":-79.9312,"iata":"YHM","type":"medium","country":"CA","city":"Hamilton"},{"name":"Hornepayne Municipal Airport","lat":49.1931,"lng":-84.7589,"iata":"YHN","type":"medium","country":"CA","city":"Hornepayne"},{"name":"Haines Junction Airport","lat":60.7892,"lng":-137.546,"iata":"YHT","type":"medium","country":"CA","city":"Haines Junction"},{"name":"Montréal / Saint-Hubert Metropolitan Airport","lat":45.5175,"lng":-73.4169,"iata":"YHU","type":"medium","country":"CA","city":"Montréal"},{"name":"Hay River / Merlyn Carter Airport","lat":60.8397,"lng":-115.783,"iata":"YHY","type":"medium","country":"CA","city":"Hay River"},{"name":"Halifax / Stanfield International Airport","lat":44.8808,"lng":-63.5086,"iata":"YHZ","type":"large","country":"CA","city":"Halifax"},{"name":"Atikokan Municipal Airport","lat":48.7739,"lng":-91.6386,"iata":"YIB","type":"medium","country":"CA","city":"Atikokan"},{"name":"Digby / Annapolis Regional Airport","lat":44.5458,"lng":-65.7854,"iata":"YDG","type":"medium","country":"CA","city":"Digby"},{"name":"St Augustin Airport","lat":51.2117,"lng":-58.6583,"iata":"YIF","type":"medium","country":"CA","city":"St-Augustin"},{"name":"Island Lake Airport","lat":53.8572,"lng":-94.6536,"iata":"YIV","type":"medium","country":"CA","city":"Island Lake"},{"name":"Fort Liard Airport","lat":60.2358,"lng":-123.469,"iata":"YJF","type":"medium","country":"CA","city":"Fort Liard"},{"name":"St Jean Airport","lat":45.2944,"lng":-73.2811,"iata":"YJN","type":"medium","country":"CA","city":"St Jean"},{"name":"Stephenville Dymond International Airport","lat":48.5434,"lng":-58.5529,"iata":"YJT","type":"medium","country":"CA","city":"Stephenville"},{"name":"Kamloops John Moose Fulton Field Regional Airport","lat":50.703,"lng":-120.4486,"iata":"YKA","type":"medium","country":"CA","city":"Kamloops"},{"name":"Region of Waterloo International Airport","lat":43.4608,"lng":-80.3786,"iata":"YKF","type":"medium","country":"CA","city":"Breslau"},{"name":"Key Lake Airport","lat":57.2561,"lng":-105.618,"iata":"YKJ","type":"medium","country":"CA","city":"Key Lake"},{"name":"Schefferville Airport","lat":54.8053,"lng":-66.8053,"iata":"YKL","type":"medium","country":"CA","city":"Schefferville"},{"name":"Kincardine Municipal Airport","lat":44.2014,"lng":-81.6067,"iata":"YKD","type":"medium","country":"CA","city":"Kincardine"},{"name":"Kirkland Lake Airport","lat":48.2103,"lng":-79.9814,"iata":"YKX","type":"medium","country":"CA","city":"Kirkland Lake"},{"name":"Kindersley Airport","lat":51.5175,"lng":-109.181,"iata":"YKY","type":"medium","country":"CA","city":"Kindersley"},{"name":"Chapleau Airport","lat":47.82,"lng":-83.3467,"iata":"YLD","type":"medium","country":"CA","city":"Chapleau"},{"name":"Meadow Lake Airport","lat":54.1253,"lng":-108.523,"iata":"YLJ","type":"medium","country":"CA","city":"Meadow Lake"},{"name":"Lloydminster Airport","lat":53.3092,"lng":-110.073,"iata":"YLL","type":"medium","country":"CA","city":"Lloydminster"},{"name":"Leaf Rapids Airport","lat":56.5133,"lng":-99.9853,"iata":"YLR","type":"medium","country":"CA","city":"Leaf Rapids"},{"name":"Barrie-Lake Simcoe Regional Airport","lat":44.4851,"lng":-79.5547,"iata":"YLK","type":"medium","country":"CA","city":"Barrie"},{"name":"Alert Airport","lat":82.5173,"lng":-62.283,"iata":"YLT","type":"medium","country":"CA","city":"Alert"},{"name":"Kelowna International Airport","lat":49.9561,"lng":-119.378,"iata":"YLW","type":"large","country":"CA","city":"Kelowna"},{"name":"Mayo Airport","lat":63.6164,"lng":-135.868,"iata":"YMA","type":"medium","country":"CA","city":"Mayo"},{"name":"Matane Airport","lat":48.8569,"lng":-67.4533,"iata":"YME","type":"medium","country":"CA","city":"Matane"},{"name":"Manitouwadge Airport","lat":49.0839,"lng":-85.8606,"iata":"YMG","type":"medium","country":"CA","city":"Manitouwadge"},{"name":"Moose Jaw Air Vice Marshal C. M. McEwen Airport","lat":50.3303,"lng":-105.559,"iata":"YMJ","type":"medium","country":"CA","city":"Moose Jaw"},{"name":"Charlevoix Airport","lat":47.5975,"lng":-70.2239,"iata":"YML","type":"medium","country":"CA","city":"Charlevoix"},{"name":"Fort McMurray International Airport","lat":56.6533,"lng":-111.222,"iata":"YMM","type":"medium","country":"CA","city":"Fort McMurray"},{"name":"Moosonee Airport","lat":51.2911,"lng":-80.6078,"iata":"YMO","type":"medium","country":"CA","city":"Moosonee"},{"name":"Chapais Airport","lat":49.7719,"lng":-74.5281,"iata":"YMT","type":"medium","country":"CA","city":"Chibougamau"},{"name":"Montreal Mirabel International Airport","lat":45.6795,"lng":-74.0387,"iata":"YMX","type":"medium","country":"CA","city":"Montréal"},{"name":"Natashquan Airport","lat":50.1901,"lng":-61.789,"iata":"YNA","type":"medium","country":"CA","city":"Natashquan"},{"name":"Ottawa / Gatineau Airport","lat":45.5217,"lng":-75.5636,"iata":"YND","type":"medium","country":"CA","city":"Gatineau"},{"name":"Langley Airport","lat":49.1008,"lng":-122.631,"iata":"YLY","type":"medium","country":"CA","city":"Langley"},{"name":"Points North Landing Airport","lat":58.2767,"lng":-104.082,"iata":"YNL","type":"medium","country":"CA","city":"Points North Landing"},{"name":"Matagami Airport","lat":49.7617,"lng":-77.8028,"iata":"YNM","type":"medium","country":"CA","city":"Matagami"},{"name":"Nejanilini Lake Airport","lat":59.4875,"lng":-97.7803,"iata":"","type":"medium","country":"CA","city":"Nejanilini Lake"},{"name":"Ekati Airport","lat":64.6989,"lng":-110.615,"iata":"YOA","type":"medium","country":"CA","city":"Ekati"},{"name":"CFB Cold Lake","lat":54.405,"lng":-110.279,"iata":"YOD","type":"medium","country":"CA","city":"Cold Lake"},{"name":"High Level Airport","lat":58.6214,"lng":-117.165,"iata":"YOJ","type":"medium","country":"CA","city":"High Level"},{"name":"Oshawa Executive Airport","lat":43.9228,"lng":-78.895,"iata":"YOO","type":"medium","country":"CA","city":"Oshawa"},{"name":"Rainbow Lake Airport","lat":58.4914,"lng":-119.408,"iata":"YOP","type":"medium","country":"CA","city":"Rainbow Lake"},{"name":"Owen Sound / Billy Bishop Regional Airport","lat":44.5903,"lng":-80.8375,"iata":"YOS","type":"medium","country":"CA","city":"Owen Sound"},{"name":"Ottawa Macdonald-Cartier International Airport","lat":45.3225,"lng":-75.6692,"iata":"YOW","type":"large","country":"CA","city":"Ottawa"},{"name":"Prince Albert Glass Field","lat":53.2142,"lng":-105.673,"iata":"YPA","type":"medium","country":"CA","city":"Prince Albert"},{"name":"Port Hawkesbury Airport","lat":45.6567,"lng":-61.3681,"iata":"YPS","type":"medium","country":"CA","city":"Port Hawkesbury"},{"name":"Peace River Airport","lat":56.2269,"lng":-117.447,"iata":"YPE","type":"medium","country":"CA","city":"Peace River"},{"name":"Portage-la-Prairie / Southport Airport","lat":49.9031,"lng":-98.2738,"iata":"YPG","type":"medium","country":"CA","city":"Portage la Prairie"},{"name":"Pitt Meadows Regional Airport","lat":49.2149,"lng":-122.7093,"iata":"","type":"medium","country":"CA","city":"Pitt Meadows"},{"name":"Pickle Lake Airport","lat":51.4464,"lng":-90.2142,"iata":"YPL","type":"medium","country":"CA","city":"Pickle Lake"},{"name":"Port-Menier Airport","lat":49.8364,"lng":-64.2886,"iata":"YPN","type":"medium","country":"CA","city":"Port-Menier"},{"name":"Peterborough Regional Airport","lat":44.2323,"lng":-78.3621,"iata":"YPQ","type":"medium","country":"CA","city":"Peterborough"},{"name":"Prince Rupert Airport","lat":54.2861,"lng":-130.445,"iata":"YPR","type":"medium","country":"CA","city":"Prince Rupert"},{"name":"Powell River Airport","lat":49.8342,"lng":-124.5,"iata":"YPW","type":"medium","country":"CA","city":"Powell River"},{"name":"Puvirnituq Airport","lat":60.0506,"lng":-77.2869,"iata":"YPX","type":"medium","country":"CA","city":"Puvirnituq"},{"name":"Fort Chipewyan Airport","lat":58.7672,"lng":-111.117,"iata":"YPY","type":"medium","country":"CA","city":"Fort Chipewyan"},{"name":"Burns Lake Airport","lat":54.3764,"lng":-125.951,"iata":"YPZ","type":"medium","country":"CA","city":"Burns Lake"},{"name":"Muskoka Airport","lat":44.9754,"lng":-79.3065,"iata":"YQA","type":"medium","country":"CA","city":"Gravenhurst"},{"name":"Quebec Jean Lesage International Airport","lat":46.7911,"lng":-71.3933,"iata":"YQB","type":"large","country":"CA","city":"Quebec"},{"name":"The Pas Airport","lat":53.9714,"lng":-101.091,"iata":"YQD","type":"medium","country":"CA","city":"The Pas"},{"name":"Red Deer Regional Airport","lat":52.1822,"lng":-113.894,"iata":"YQF","type":"medium","country":"CA","city":"Springbrook"},{"name":"Windsor International Airport","lat":42.2756,"lng":-82.9556,"iata":"YQG","type":"medium","country":"CA","city":"Windsor"},{"name":"Watson Lake Airport","lat":60.1168,"lng":-128.822,"iata":"YQH","type":"medium","country":"CA","city":"Watson Lake"},{"name":"Yarmouth Airport","lat":43.8269,"lng":-66.0881,"iata":"YQI","type":"medium","country":"CA","city":"Yarmouth"},{"name":"Kenora Airport","lat":49.7883,"lng":-94.3631,"iata":"YQK","type":"medium","country":"CA","city":"Kenora"},{"name":"Lethbridge County Airport","lat":49.6303,"lng":-112.8,"iata":"YQL","type":"medium","country":"CA","city":"Lethbridge"},{"name":"Greater Moncton Roméo LeBlanc International Airport","lat":46.1132,"lng":-64.6772,"iata":"YQM","type":"medium","country":"CA","city":"Moncton"},{"name":"Nakina Airport","lat":50.1828,"lng":-86.6964,"iata":"YQN","type":"medium","country":"CA","city":"Nakina"},{"name":"Comox Valley International Airport / CFB Comox","lat":49.7108,"lng":-124.887,"iata":"YQQ","type":"medium","country":"CA","city":"Comox"},{"name":"Regina International Airport","lat":50.4319,"lng":-104.6609,"iata":"YQR","type":"medium","country":"CA","city":"Regina"},{"name":"St Thomas Municipal Airport","lat":42.77,"lng":-81.1108,"iata":"YQS","type":"medium","country":"CA","city":"St Thomas"},{"name":"Thunder Bay International Airport","lat":48.3719,"lng":-89.3239,"iata":"YQT","type":"medium","country":"CA","city":"Thunder Bay"},{"name":"Grande Prairie Airport","lat":55.1797,"lng":-118.885,"iata":"YQU","type":"medium","country":"CA","city":"Grande Prairie"},{"name":"Yorkton Municipal Airport","lat":51.2647,"lng":-102.462,"iata":"YQV","type":"medium","country":"CA","city":"Yorkton"},{"name":"North Battleford Airport","lat":52.7694,"lng":-108.2437,"iata":"YQW","type":"medium","country":"CA","city":"North Battleford"},{"name":"Gander International Airport","lat":48.9363,"lng":-54.5677,"iata":"YQX","type":"medium","country":"CA","city":"Gander"},{"name":"Sydney / J.A. Douglas McCurdy Airport","lat":46.1611,"lng":-60.0498,"iata":"YQY","type":"medium","country":"CA","city":"Sydney"},{"name":"Quesnel Airport","lat":53.0261,"lng":-122.51,"iata":"YQZ","type":"medium","country":"CA","city":"Quesnel"},{"name":"Resolute Bay Airport","lat":74.7169,"lng":-94.9694,"iata":"YRB","type":"medium","country":"CA","city":"Resolute Bay"},{"name":"Rivière-du-Loup Airport","lat":47.7644,"lng":-69.5847,"iata":"YRI","type":"medium","country":"CA","city":"Rivière-du-Loup"},{"name":"Roberval Airport","lat":48.5197,"lng":-72.2657,"iata":"YRJ","type":"medium","country":"CA","city":"Roberval"},{"name":"Red Lake Airport","lat":51.0669,"lng":-93.7931,"iata":"YRL","type":"medium","country":"CA","city":"Red Lake"},{"name":"Ottawa / Rockcliffe Airport","lat":45.4605,"lng":-75.644,"iata":"YRO","type":"medium","country":"CA","city":"Ottawa"},{"name":"Ottawa / Carp Airport","lat":45.3192,"lng":-76.0222,"iata":"","type":"medium","country":"CA","city":"Ottawa"},{"name":"Trois-Rivières Airport","lat":46.3528,"lng":-72.6794,"iata":"YRQ","type":"medium","country":"CA","city":"Trois-Rivières"},{"name":"Rankin Inlet Airport","lat":62.8114,"lng":-92.1158,"iata":"YRT","type":"medium","country":"CA","city":"Rankin Inlet"},{"name":"Revelstoke Airport","lat":50.9622,"lng":-118.1843,"iata":"YRV","type":"medium","country":"CA","city":"Revelstoke"},{"name":"Sudbury Airport","lat":46.625,"lng":-80.7989,"iata":"YSB","type":"medium","country":"CA","city":"Sudbury"},{"name":"Sherbrooke Airport","lat":45.4386,"lng":-71.6914,"iata":"YSC","type":"medium","country":"CA","city":"Sherbrooke"},{"name":"Stony Rapids Airport","lat":59.2503,"lng":-105.841,"iata":"YSF","type":"medium","country":"CA","city":"Stony Rapids"},{"name":"Saint-Georges Airport","lat":46.0964,"lng":-70.7147,"iata":"","type":"medium","country":"CA","city":"Saint-Georges"},{"name":"Smiths Falls-Montague (Russ Beach) Airport","lat":44.9458,"lng":-75.9406,"iata":"YSH","type":"medium","country":"CA","city":"Smiths Falls"},{"name":"Saint John Airport","lat":45.3161,"lng":-65.8903,"iata":"YSJ","type":"medium","country":"CA","city":"Saint John"},{"name":"Saint-Léonard Airport","lat":47.1571,"lng":-67.8362,"iata":"YSL","type":"medium","country":"CA","city":"Saint-Léonard"},{"name":"Fort Smith Airport","lat":60.0203,"lng":-111.962,"iata":"YSM","type":"medium","country":"CA","city":"Fort Smith"},{"name":"Niagara District Airport","lat":43.1916,"lng":-79.1717,"iata":"YCM","type":"medium","country":"CA","city":"Niagara-on-the-Lake"},{"name":"Marathon Airport","lat":48.7553,"lng":-86.3444,"iata":"YSP","type":"medium","country":"CA","city":"Marathon"},{"name":"Summerside Airport","lat":46.4406,"lng":-63.8336,"iata":"YSU","type":"medium","country":"CA","city":"Slemon Park"},{"name":"Pembroke Airport","lat":45.8644,"lng":-77.2517,"iata":"YTA","type":"medium","country":"CA","city":"Pembroke"},{"name":"Alma Airport","lat":48.5089,"lng":-71.6419,"iata":"YTF","type":"medium","country":"CA","city":"Alma"},{"name":"Thompson Airport","lat":55.8011,"lng":-97.8642,"iata":"YTH","type":"medium","country":"CA","city":"Thompson"},{"name":"CFB Trenton","lat":44.1189,"lng":-77.5281,"iata":"YTR","type":"medium","country":"CA","city":"Trenton"},{"name":"Timmins/Victor M. Power","lat":48.5697,"lng":-81.3767,"iata":"YTS","type":"medium","country":"CA","city":"Timmins"},{"name":"Billy Bishop Toronto City Airport","lat":43.6279,"lng":-79.3955,"iata":"YTZ","type":"medium","country":"CA","city":"Toronto"},{"name":"Montreal / Pierre Elliott Trudeau International Airport","lat":45.4678,"lng":-73.7423,"iata":"YUL","type":"large","country":"CA","city":"Montréal"},{"name":"Hall Beach Airport","lat":68.7761,"lng":-81.2425,"iata":"YUX","type":"medium","country":"CA","city":"Sanirajak"},{"name":"Rouyn Noranda Airport","lat":48.2061,"lng":-78.8356,"iata":"YUY","type":"medium","country":"CA","city":"Rouyn-Noranda"},{"name":"Bonaventure Airport","lat":48.0711,"lng":-65.4603,"iata":"YVB","type":"medium","country":"CA","city":"Bonaventure"},{"name":"La Ronge Airport","lat":55.1514,"lng":-105.262,"iata":"YVC","type":"medium","country":"CA","city":"La Ronge"},{"name":"Virden / RJ (Bob) Andrew Field Regional Aerodrome","lat":49.8783,"lng":-100.918,"iata":"","type":"medium","country":"CA","city":"Virden"},{"name":"Vernon Regional Airport","lat":50.2462,"lng":-119.331,"iata":"YVE","type":"medium","country":"CA","city":"Vernon"},{"name":"Val-d'Or Airport","lat":48.0533,"lng":-77.7828,"iata":"YVO","type":"medium","country":"CA","city":"Val-d'Or"},{"name":"Kuujjuaq Airport","lat":58.0961,"lng":-68.4269,"iata":"YVP","type":"medium","country":"CA","city":"Kuujjuaq"},{"name":"Norman Wells Airport","lat":65.2816,"lng":-126.798,"iata":"YVQ","type":"medium","country":"CA","city":"Norman Wells"},{"name":"Vancouver International Airport","lat":49.1939,"lng":-123.184,"iata":"YVR","type":"large","country":"CA","city":"Vancouver"},{"name":"Wiarton Airport","lat":44.7458,"lng":-81.1072,"iata":"YVV","type":"medium","country":"CA","city":"Wiarton"},{"name":"Winnipeg / James Armstrong Richardson International Airport","lat":49.91,"lng":-97.2399,"iata":"YWG","type":"large","country":"CA","city":"Winnipeg"},{"name":"Wabush Airport","lat":52.9219,"lng":-66.8644,"iata":"YWK","type":"medium","country":"CA","city":"Wabush"},{"name":"Williams Lake Airport","lat":52.1831,"lng":-122.054,"iata":"YWL","type":"medium","country":"CA","city":"Williams Lake"},{"name":"Wrigley Airport","lat":63.2094,"lng":-123.437,"iata":"YWY","type":"medium","country":"CA","city":"Wrigley"},{"name":"Cranbrook/Canadian Rockies International Airport","lat":49.6108,"lng":-115.782,"iata":"YXC","type":"medium","country":"CA","city":"Cranbrook"},{"name":"Saskatoon John G. Diefenbaker International Airport","lat":52.1707,"lng":-106.7008,"iata":"YXE","type":"large","country":"CA","city":"Saskatoon"},{"name":"Medicine Hat Regional Airport","lat":50.0189,"lng":-110.721,"iata":"YXH","type":"medium","country":"CA","city":"Medicine Hat"},{"name":"Fort St John / North Peace Regional Airport","lat":56.2381,"lng":-120.74,"iata":"YXJ","type":"medium","country":"CA","city":"Fort Saint John"},{"name":"Rimouski Airport","lat":48.4776,"lng":-68.4963,"iata":"YXK","type":"medium","country":"CA","city":"Rimouski"},{"name":"Sioux Lookout Airport","lat":50.1139,"lng":-91.9053,"iata":"YXL","type":"medium","country":"CA","city":"Sioux Lookout"},{"name":"Beaver Creek Airport","lat":62.4103,"lng":-140.867,"iata":"YXQ","type":"medium","country":"CA","city":"Beaver Creek"},{"name":"Earlton (Timiskaming Regional) Airport","lat":47.6974,"lng":-79.8473,"iata":"YXR","type":"medium","country":"CA","city":"Earlton"},{"name":"Prince George (International) Airport","lat":53.8843,"lng":-122.6666,"iata":"YXS","type":"medium","country":"CA","city":"Prince George"},{"name":"Northwest Regional Airport Terrace-Kitimat","lat":54.4685,"lng":-128.576,"iata":"YXT","type":"medium","country":"CA","city":"Terrace"},{"name":"London International Airport","lat":43.0328,"lng":-81.149,"iata":"YXU","type":"medium","country":"CA","city":"London"},{"name":"Abbotsford International Airport","lat":49.0253,"lng":-122.361,"iata":"YXX","type":"medium","country":"CA","city":"Abbotsford"},{"name":"Whitehorse / Erik Nielsen International Airport","lat":60.7085,"lng":-135.0657,"iata":"YXY","type":"medium","country":"CA","city":"Whitehorse"},{"name":"Wawa Airport","lat":47.9667,"lng":-84.7867,"iata":"YXZ","type":"medium","country":"CA","city":"Wawa"},{"name":"North Bay Jack Garland Airport","lat":46.3636,"lng":-79.4228,"iata":"YYB","type":"medium","country":"CA","city":"North Bay"},{"name":"Calgary International Airport","lat":51.1188,"lng":-114.0099,"iata":"YYC","type":"large","country":"CA","city":"Calgary"},{"name":"Smithers Airport","lat":54.8247,"lng":-127.183,"iata":"YYD","type":"medium","country":"CA","city":"Smithers"},{"name":"Fort Nelson Airport","lat":58.8364,"lng":-122.597,"iata":"YYE","type":"medium","country":"CA","city":"Fort Nelson"},{"name":"Penticton Airport","lat":49.4631,"lng":-119.602,"iata":"YYF","type":"medium","country":"CA","city":"Penticton"},{"name":"Charlottetown Airport","lat":46.2889,"lng":-63.1252,"iata":"YYG","type":"medium","country":"CA","city":"Charlottetown"},{"name":"Victoria International Airport","lat":48.6472,"lng":-123.4278,"iata":"YYJ","type":"large","country":"CA","city":"Victoria"},{"name":"Lynn Lake Airport","lat":56.8639,"lng":-101.076,"iata":"YYL","type":"medium","country":"CA","city":"Lynn Lake"},{"name":"Swift Current Airport","lat":50.2919,"lng":-107.691,"iata":"YYN","type":"medium","country":"CA","city":"Swift Current"},{"name":"Churchill Airport","lat":58.7392,"lng":-94.065,"iata":"YYQ","type":"medium","country":"CA","city":"Churchill"},{"name":"Goose Bay Airport","lat":53.3192,"lng":-60.4258,"iata":"YYR","type":"medium","country":"CA","city":"Goose Bay"},{"name":"St. John's International Airport","lat":47.6186,"lng":-52.7519,"iata":"YYT","type":"large","country":"CA","city":"St. John's"},{"name":"Kapuskasing Airport","lat":49.4116,"lng":-82.4696,"iata":"YYU","type":"medium","country":"CA","city":"Kapuskasing"},{"name":"Armstrong Airport","lat":50.2903,"lng":-88.9097,"iata":"YYW","type":"medium","country":"CA","city":"Armstrong"},{"name":"Mont Joli Airport","lat":48.6086,"lng":-68.2081,"iata":"YYY","type":"medium","country":"CA","city":"Mont-Joli"},{"name":"Toronto Pearson International Airport","lat":43.6759,"lng":-79.6294,"iata":"YYZ","type":"large","country":"CA","city":"Toronto"},{"name":"Gore Bay Manitoulin Airport","lat":45.8853,"lng":-82.5678,"iata":"YZE","type":"medium","country":"CA","city":"Gore Bay"},{"name":"Yellowknife International Airport","lat":62.4628,"lng":-114.44,"iata":"YZF","type":"medium","country":"CA","city":"Yellowknife"},{"name":"Slave Lake Airport","lat":55.2929,"lng":-114.7773,"iata":"YZH","type":"medium","country":"CA","city":"Slave Lake"},{"name":"Sandspit Airport","lat":53.2543,"lng":-131.814,"iata":"YZP","type":"medium","country":"CA","city":"Sandspit"},{"name":"Chris Hadfield Airport","lat":42.9994,"lng":-82.3089,"iata":"YZR","type":"medium","country":"CA","city":"Sarnia"},{"name":"Coral Harbour Airport","lat":64.1933,"lng":-83.3594,"iata":"YZS","type":"medium","country":"CA","city":"Coral Harbour"},{"name":"Port Hardy Airport","lat":50.6806,"lng":-127.367,"iata":"YZT","type":"medium","country":"CA","city":"Port Hardy"},{"name":"Whitecourt Airport","lat":54.1439,"lng":-115.787,"iata":"YZU","type":"medium","country":"CA","city":"Whitecourt"},{"name":"Sept-Îles Airport","lat":50.2233,"lng":-66.2656,"iata":"YZV","type":"medium","country":"CA","city":"Sept-Îles"},{"name":"Teslin Airport","lat":60.1728,"lng":-132.743,"iata":"YZW","type":"medium","country":"CA","city":"Teslin"},{"name":"CFB Greenwood","lat":44.9844,"lng":-64.9169,"iata":"YZX","type":"medium","country":"CA","city":"Greenwood"},{"name":"Mackenzie Airport","lat":55.2978,"lng":-123.1339,"iata":"","type":"medium","country":"CA","city":"Mackenzie"},{"name":"Kostomlaty Airstrip","lat":50.2084,"lng":14.9259,"iata":"","type":"medium","country":"CZ","city":""},{"name":"Shuswap Regional Airport","lat":50.6828,"lng":-119.229,"iata":"YSN","type":"medium","country":"CA","city":"Salmon Arm"},{"name":"Boundary Bay Airport","lat":49.0743,"lng":-123.0069,"iata":"YDT","type":"medium","country":"CA","city":"Delta"},{"name":"Bathurst Airport","lat":47.6297,"lng":-65.7389,"iata":"ZBF","type":"medium","country":"CA","city":"South Tetagouche"},{"name":"Bromont (Roland Désourdy) Airport","lat":45.2908,"lng":-72.7414,"iata":"ZBM","type":"medium","country":"CA","city":"Bromont"},{"name":"Kelsey Airport","lat":56.0375,"lng":-96.5097,"iata":"KES","type":"medium","country":"CA","city":"Kelsey"},{"name":"Faro Airport","lat":62.2075,"lng":-133.376,"iata":"ZFA","type":"medium","country":"CA","city":"Faro"},{"name":"Grand Forks Airport","lat":49.0156,"lng":-118.431,"iata":"ZGF","type":"medium","country":"CA","city":"Grand Forks"},{"name":"Jenpeg Airport","lat":54.5189,"lng":-98.0461,"iata":"ZJG","type":"medium","country":"CA","city":"Jenpeg"},{"name":"Swan River Airport","lat":52.1206,"lng":-101.236,"iata":"ZJN","type":"medium","country":"CA","city":"Swan River"},{"name":"Thicket Portage Airport","lat":55.3189,"lng":-97.7078,"iata":"YTD","type":"medium","country":"CA","city":"Thicket Portage"},{"name":"Pikwitonei Airport","lat":55.5889,"lng":-97.1642,"iata":"PIW","type":"medium","country":"CA","city":"Pikwitonei"},{"name":"Masset Airport","lat":54.0275,"lng":-132.125,"iata":"ZMT","type":"medium","country":"CA","city":"Masset"},{"name":"Pincher Creek Airport","lat":49.5204,"lng":-113.997,"iata":"WPC","type":"medium","country":"CA","city":"Pincher Creek"},{"name":"Sandy Lake Airport","lat":53.0642,"lng":-93.3444,"iata":"ZSJ","type":"medium","country":"CA","city":"Sandy Lake"},{"name":"Stewart Airport","lat":55.9354,"lng":-129.9824,"iata":"ZST","type":"medium","country":"CA","city":"Stewart"},{"name":"Ignace Municipal Airport","lat":49.4282,"lng":-91.7204,"iata":"ZUC","type":"medium","country":"CA","city":"Ignace"},{"name":"Blida Airport","lat":36.5036,"lng":2.8142,"iata":"","type":"medium","country":"DZ","city":"Blida"},{"name":"Bou Saada Airport","lat":35.3325,"lng":4.2064,"iata":"BUJ","type":"medium","country":"DZ","city":"Ouled Sidi Brahim"},{"name":"Soummam–Abane Ramdane Airport","lat":36.7125,"lng":5.0699,"iata":"BJA","type":"large","country":"DZ","city":"Béjaïa"},{"name":"Houari Boumediene Airport","lat":36.6939,"lng":3.2145,"iata":"ALG","type":"large","country":"DZ","city":"Algiers"},{"name":"Tiska Djanet Airport","lat":24.2854,"lng":9.4637,"iata":"DJG","type":"large","country":"DZ","city":"Djanet"},{"name":"Boufarik Air Base","lat":36.5458,"lng":2.8761,"iata":"","type":"medium","country":"DZ","city":"Boufarik"},{"name":"Illizi Takhamalt Airport","lat":26.7235,"lng":8.6227,"iata":"VVZ","type":"medium","country":"DZ","city":"Illizi"},{"name":"Ain Arnat Airport","lat":36.1785,"lng":5.3299,"iata":"QSF","type":"medium","country":"DZ","city":"Sétif"},{"name":"Aguenar – Hadj Bey Akhamok Airport","lat":22.811,"lng":5.4508,"iata":"TMR","type":"large","country":"DZ","city":"Tamanrasset"},{"name":"Jijel Ferhat Abbas Airport","lat":36.7941,"lng":5.8737,"iata":"GJL","type":"large","country":"DZ","city":"Tahir"},{"name":"Mecheria Airport","lat":33.5359,"lng":-0.2424,"iata":"MZW","type":"medium","country":"DZ","city":"Mecheria"},{"name":"Relizane Airport","lat":35.753,"lng":0.6259,"iata":"","type":"medium","country":"DZ","city":"Relizane"},{"name":"Annaba Rabah Bitat Airport","lat":36.8268,"lng":7.8133,"iata":"AAE","type":"large","country":"DZ","city":"Annaba"},{"name":"Mohamed Boudiaf International Airport","lat":36.276,"lng":6.6204,"iata":"CZL","type":"large","country":"DZ","city":"Constantine"},{"name":"Cheikh Larbi Tébessi Airport","lat":35.4316,"lng":8.1207,"iata":"TEE","type":"medium","country":"DZ","city":"Tébessi"},{"name":"Batna Mostefa Ben Boulaid Airport","lat":35.7521,"lng":6.3086,"iata":"BLJ","type":"large","country":"DZ","city":"Batna"},{"name":"Hassi R'Mel Airport","lat":32.9304,"lng":3.3115,"iata":"HRM","type":"medium","country":"DZ","city":"Hassi R'Mel"},{"name":"Abdelhafid Boussouf Bou Chekif Airport","lat":35.3411,"lng":1.4631,"iata":"TID","type":"medium","country":"DZ","city":"Tiaret"},{"name":"Tindouf Airport","lat":27.7004,"lng":-8.1671,"iata":"TIN","type":"medium","country":"DZ","city":"Tindouf"},{"name":"Chlef Aboubakr Belkaid International Airport","lat":36.2166,"lng":1.3411,"iata":"CFK","type":"large","country":"DZ","city":"Chlef"},{"name":"Oran Tafraoui Airport","lat":35.5424,"lng":-0.5323,"iata":"TAF","type":"medium","country":"DZ","city":"Tafraoui"},{"name":"Zenata – Messali El Hadj Airport","lat":35.0127,"lng":-1.4571,"iata":"TLM","type":"large","country":"DZ","city":"Zenata"},{"name":"Oran Es-Sénia (Ahmed Ben Bella) International Airport","lat":35.6206,"lng":-0.6225,"iata":"ORN","type":"large","country":"DZ","city":"Es-Sénia"},{"name":"Béchar Boudghene Ben Ali Lotfi Airport","lat":31.6457,"lng":-2.2699,"iata":"CBH","type":"medium","country":"DZ","city":"Béchar"},{"name":"Ghriss Airport","lat":35.2077,"lng":0.1471,"iata":"MUW","type":"medium","country":"DZ","city":"Ghriss"},{"name":"Bordj Badji Mokhtar Airport","lat":21.3778,"lng":0.927,"iata":"BMW","type":"medium","country":"DZ","city":"Bordj Badji Mokhtar"},{"name":"Touat-Cheikh Sidi Mohamed Belkebir Airport","lat":27.8376,"lng":-0.1864,"iata":"AZR","type":"medium","country":"DZ","city":"Adrar"},{"name":"Biskra - Mohamed Khider Airport","lat":34.7932,"lng":5.7389,"iata":"BSK","type":"large","country":"DZ","city":"Biskra"},{"name":"El Golea Airport","lat":30.5807,"lng":2.8616,"iata":"ELG","type":"medium","country":"DZ","city":"El Menia"},{"name":"Noumérat - Moufdi Zakaria Airport","lat":32.3841,"lng":3.7941,"iata":"GHA","type":"medium","country":"DZ","city":"El Atteuf"},{"name":"Hassi Messaoud-Oued Irara Krim Belkacem Airport","lat":31.673,"lng":6.1404,"iata":"HME","type":"medium","country":"DZ","city":"Hassi Messaoud"},{"name":"In Salah Airport","lat":27.251,"lng":2.512,"iata":"INZ","type":"medium","country":"DZ","city":"In Salah"},{"name":"Touggourt Sidi Madhi Airport","lat":33.0678,"lng":6.0887,"iata":"TGR","type":"medium","country":"DZ","city":"Touggourt"},{"name":"Laghouat - Molay Ahmed Medeghri Airport","lat":33.7644,"lng":2.9283,"iata":"LOO","type":"medium","country":"DZ","city":"Laghouat"},{"name":"Guemar Airport - مطار قمار بالوادي","lat":33.5114,"lng":6.7768,"iata":"ELU","type":"medium","country":"DZ","city":"Guemar"},{"name":"Timimoun Airport","lat":29.2371,"lng":0.276,"iata":"TMX","type":"medium","country":"DZ","city":"Timimoun"},{"name":"Ain Beida Airport","lat":31.9172,"lng":5.4128,"iata":"OGX","type":"medium","country":"DZ","city":"Ouargla"},{"name":"Zarzaitine - In Aménas Airport","lat":28.0515,"lng":9.6429,"iata":"IAM","type":"medium","country":"DZ","city":"In Aménas"},{"name":"Cotonou Cadjehoun International Airport","lat":6.3572,"lng":2.3843,"iata":"COO","type":"large","country":"BJ","city":"Cotonou"},{"name":"Ouagadougou Thomas Sankara International Airport","lat":12.3532,"lng":-1.5124,"iata":"OUA","type":"large","country":"BF","city":"Ouagadougou"},{"name":"Bobo Dioulasso Airport","lat":11.1601,"lng":-4.331,"iata":"BOY","type":"large","country":"BF","city":"Bobo Dioulasso"},{"name":"Kotoka International Airport","lat":5.6052,"lng":-0.1668,"iata":"ACC","type":"large","country":"GH","city":"Accra"},{"name":"Ho Airport","lat":6.5797,"lng":0.5325,"iata":"","type":"medium","country":"GH","city":"Ho"},{"name":"Yakubu Tali International Airport","lat":9.5539,"lng":-0.8661,"iata":"TML","type":"large","country":"GH","city":"Tamale"},{"name":"Prempeh I International Airport","lat":6.7146,"lng":-1.5908,"iata":"KMS","type":"large","country":"GH","city":"Kumasi"},{"name":"Sunyani Airport","lat":7.3618,"lng":-2.3288,"iata":"NYI","type":"medium","country":"GH","city":"Sunyani"},{"name":"Takoradi Airport","lat":4.8961,"lng":-1.7748,"iata":"TKD","type":"medium","country":"GH","city":"Sekondi-Takoradi"},{"name":"Félix-Houphouët-Boigny International Airport","lat":5.2614,"lng":-3.9263,"iata":"ABJ","type":"large","country":"CI","city":"Abidjan"},{"name":"Bouaké Airport","lat":7.7388,"lng":-5.0737,"iata":"BYK","type":"medium","country":"CI","city":"Bouaké"},{"name":"Daloa Airport","lat":6.7928,"lng":-6.4732,"iata":"DJO","type":"medium","country":"CI","city":""},{"name":"Korhogo Airport","lat":9.3872,"lng":-5.5567,"iata":"HGO","type":"medium","country":"CI","city":"Korhogo"},{"name":"Man Airport","lat":7.2721,"lng":-7.5874,"iata":"MJC","type":"medium","country":"CI","city":""},{"name":"San Pedro Airport","lat":4.7467,"lng":-6.6608,"iata":"SPY","type":"medium","country":"CI","city":""},{"name":"Yamoussoukro International Airport","lat":6.9032,"lng":-5.3656,"iata":"ASK","type":"large","country":"CI","city":"Yamoussoukro"},{"name":"Umaru Musa Yar'adua Airport","lat":13.0078,"lng":7.6604,"iata":"DKA","type":"medium","country":"NG","city":"Katsina"},{"name":"Nnamdi Azikiwe International Airport","lat":9.0068,"lng":7.2632,"iata":"ABV","type":"large","country":"NG","city":"Abuja"},{"name":"Akwa Ibom International Airport","lat":4.8725,"lng":8.093,"iata":"QUO","type":"medium","country":"NG","city":"Uyo"},{"name":"Akure Airport","lat":7.2467,"lng":5.301,"iata":"AKR","type":"medium","country":"NG","city":"Akure"},{"name":"Asaba International Airport","lat":6.2042,"lng":6.6653,"iata":"ABB","type":"large","country":"NG","city":"Asaba"},{"name":"Sir Abubakar Tafawa Balewa Bauchi State International Airport","lat":10.4828,"lng":9.744,"iata":"BCU","type":"large","country":"NG","city":"Bauchi"},{"name":"Benin Airport","lat":6.317,"lng":5.5995,"iata":"BNI","type":"medium","country":"NG","city":"Benin"},{"name":"Bayelsa International Airport","lat":4.9576,"lng":6.2033,"iata":"","type":"medium","country":"NG","city":"Yenagoa"},{"name":"Margaret Ekpo International Airport","lat":4.976,"lng":8.3472,"iata":"CBQ","type":"medium","country":"NG","city":"Calabar"},{"name":"Akanu Ibiam International Airport","lat":6.4737,"lng":7.5605,"iata":"ENU","type":"large","country":"NG","city":"Enegu"},{"name":"Gombe Lawanti International Airport","lat":10.2989,"lng":10.9,"iata":"GMO","type":"medium","country":"NG","city":"Gombe"},{"name":"Gusau Airport","lat":12.1729,"lng":6.6961,"iata":"","type":"medium","country":"NG","city":"Gusau"},{"name":"Ibadan Airport","lat":7.3625,"lng":3.9783,"iata":"IBA","type":"medium","country":"NG","city":"Ibadan"},{"name":"General Tunde Idiagbon International Airport","lat":8.4402,"lng":4.4939,"iata":"ILR","type":"large","country":"NG","city":"Ilorin/Ogbomosho"},{"name":"Sam Mbakwe International Cargo Airport","lat":5.4271,"lng":7.206,"iata":"QOW","type":"medium","country":"NG","city":"Owerri"},{"name":"Yakubu Gowon Airport","lat":9.6398,"lng":8.8691,"iata":"JOS","type":"medium","country":"NG","city":"Jos"},{"name":"Kaduna International Airport","lat":10.696,"lng":7.3201,"iata":"KAD","type":"large","country":"NG","city":"Kaduna"},{"name":"Mallam Aminu Kano International Airport","lat":12.0456,"lng":8.5236,"iata":"KAN","type":"large","country":"NG","city":"Kano"},{"name":"Maiduguri International Airport","lat":11.8542,"lng":13.0807,"iata":"MIU","type":"large","country":"NG","city":"Maiduguri"},{"name":"Makurdi Airport","lat":7.7039,"lng":8.6139,"iata":"MDI","type":"medium","country":"NG","city":"Makurdi"},{"name":"Murtala Muhammed International Airport","lat":6.5774,"lng":3.3212,"iata":"LOS","type":"large","country":"NG","city":"Lagos"},{"name":"Minna Airport","lat":9.6522,"lng":6.4623,"iata":"MXJ","type":"medium","country":"NG","city":"Minna"},{"name":"Port Harcourt International Airport","lat":5.0155,"lng":6.9496,"iata":"PHC","type":"large","country":"NG","city":"Port Harcourt"},{"name":"Sadiq Abubakar III International Airport","lat":12.9157,"lng":5.2075,"iata":"SKO","type":"large","country":"NG","city":"Sokoto"},{"name":"Warri Airport","lat":5.5982,"lng":5.8187,"iata":"QRW","type":"medium","country":"NG","city":"Okpe"},{"name":"Yola Airport","lat":9.2576,"lng":12.4304,"iata":"YOL","type":"medium","country":"NG","city":"Yola"},{"name":"Zaria Airport","lat":11.1302,"lng":7.6858,"iata":"ZAR","type":"medium","country":"NG","city":"Zaria"},{"name":"Maradi Airport","lat":13.5025,"lng":7.1268,"iata":"MFQ","type":"medium","country":"NE","city":"Maradi"},{"name":"Diori Hamani International Airport","lat":13.4815,"lng":2.1836,"iata":"NIM","type":"large","country":"NE","city":"Niamey"},{"name":"Tahoua Airport","lat":14.8757,"lng":5.2654,"iata":"THZ","type":"medium","country":"NE","city":"Tahoua"},{"name":"Mano Dayak International Airport","lat":16.966,"lng":8.0001,"iata":"AJY","type":"medium","country":"NE","city":"Agadez"},{"name":"Zinder Airport","lat":13.779,"lng":8.9838,"iata":"ZND","type":"medium","country":"NE","city":"Zinder"},{"name":"Tabarka-Aïn Draham International Airport","lat":36.98,"lng":8.8769,"iata":"TBJ","type":"medium","country":"TN","city":"Tabarka"},{"name":"Monastir Habib Bourguiba International Airport","lat":35.7581,"lng":10.7547,"iata":"MIR","type":"medium","country":"TN","city":"Monastir"},{"name":"Enfidha - Hammamet International Airport","lat":36.0758,"lng":10.4386,"iata":"NBE","type":"medium","country":"TN","city":"Enfidha"},{"name":"Tunis Carthage International Airport","lat":36.851,"lng":10.2272,"iata":"TUN","type":"large","country":"TN","city":"Tunis"},{"name":"Bizerte Sidi Ahmed Air Base","lat":37.2424,"lng":9.787,"iata":"","type":"medium","country":"TN","city":"Borj Challouf"},{"name":"Remada Air Base","lat":32.3062,"lng":10.3821,"iata":"","type":"medium","country":"TN","city":"Remada"},{"name":"Gafsa Ksar International Airport","lat":34.422,"lng":8.8225,"iata":"GAF","type":"medium","country":"TN","city":"Gafsa"},{"name":"Gabès Matmata International Airport","lat":33.7337,"lng":9.9194,"iata":"GAE","type":"medium","country":"TN","city":"Gabès"},{"name":"Djerba Zarzis International Airport","lat":33.8737,"lng":10.7773,"iata":"DJE","type":"large","country":"TN","city":"Mellita"},{"name":"El Borma Airport","lat":31.7043,"lng":9.2546,"iata":"EBM","type":"medium","country":"TN","city":"El Borma"},{"name":"Sfax Thyna International Airport","lat":34.718,"lng":10.691,"iata":"SFA","type":"medium","country":"TN","city":"Sfax"},{"name":"Tozeur Nefta International Airport","lat":33.9397,"lng":8.1106,"iata":"TOE","type":"medium","country":"TN","city":"Tozeur"},{"name":"Niamtougou International Airport","lat":9.7667,"lng":1.0909,"iata":"LRL","type":"large","country":"TG","city":"Niamtougou"},{"name":"Lomé–Tokoin International Airport","lat":6.1656,"lng":1.2545,"iata":"LFW","type":"large","country":"TG","city":"Lomé"},{"name":"Amguid Regional Airport","lat":26.3934,"lng":5.3254,"iata":"","type":"medium","country":"DZ","city":"Idlès"},{"name":"Antwerp International Airport (Deurne)","lat":51.1907,"lng":4.4632,"iata":"ANR","type":"medium","country":"BE","city":"Antwerp"},{"name":"Beauvechain Air Base","lat":50.7586,"lng":4.7683,"iata":"","type":"medium","country":"BE","city":"Beauvechain"},{"name":"Kleine Brogel Air Base","lat":51.1683,"lng":5.47,"iata":"","type":"medium","country":"BE","city":"Kleine Brogel"},{"name":"Brussels Airport","lat":50.9014,"lng":4.4844,"iata":"BRU","type":"large","country":"BE","city":"Zaventem"},{"name":"Brussels South Charleroi Airport","lat":50.462,"lng":4.4596,"iata":"CRL","type":"large","country":"BE","city":"Charleroi"},{"name":"Chièvres Air Base","lat":50.5758,"lng":3.831,"iata":"","type":"medium","country":"BE","city":"Chièvres"},{"name":"Koksijde Air Base","lat":51.0903,"lng":2.6528,"iata":"","type":"medium","country":"BE","city":"Koksijde"},{"name":"Florennes Air Base","lat":50.2433,"lng":4.6458,"iata":"","type":"medium","country":"BE","city":"Florennes"},{"name":"Kortrijk-Wevelgem International Airport","lat":50.8189,"lng":3.2096,"iata":"KJK","type":"medium","country":"BE","city":"Wevelgem"},{"name":"Liège Airport","lat":50.6386,"lng":5.4439,"iata":"LGG","type":"medium","country":"BE","city":"Grâce-Hollogne"},{"name":"Ostend-Bruges International Airport","lat":51.1998,"lng":2.8747,"iata":"OST","type":"large","country":"BE","city":"Oostende"},{"name":"Leipzig–Altenburg Airport","lat":50.9819,"lng":12.5064,"iata":"AOC","type":"medium","country":"DE","city":"Nobitz"},{"name":"Heringsdorf Airport","lat":53.8787,"lng":14.1523,"iata":"HDF","type":"medium","country":"DE","city":"Zirchow"},{"name":"Neubrandenburg Trollenhagen Airport","lat":53.6022,"lng":13.306,"iata":"FNB","type":"medium","country":"DE","city":"Trollenhagen"},{"name":"Rothenburg/Görlitz Airfield","lat":51.3633,"lng":14.95,"iata":"","type":"medium","country":"DE","city":"Rothenburg/Oberlausitz"},{"name":"Berlin Brandenburg Airport","lat":52.3617,"lng":13.5023,"iata":"BER","type":"large","country":"DE","city":"Berlin"},{"name":"Dresden Airport","lat":51.1341,"lng":13.7678,"iata":"DRS","type":"large","country":"DE","city":"Dresden"},{"name":"Erfurt-Weimar Airport","lat":50.9783,"lng":10.9607,"iata":"ERF","type":"large","country":"DE","city":"Erfurt"},{"name":"Frankfurt Main Airport","lat":50.0267,"lng":8.5584,"iata":"FRA","type":"large","country":"DE","city":"Frankfurt am Main"},{"name":"Münster Osnabrück Airport","lat":52.1338,"lng":7.6885,"iata":"FMO","type":"large","country":"DE","city":"Greven"},{"name":"Hamburg Helmut Schmidt Airport","lat":53.6304,"lng":9.9882,"iata":"HAM","type":"large","country":"DE","city":"Hamburg"},{"name":"Cologne Bonn Airport","lat":50.8659,"lng":7.1427,"iata":"CGN","type":"large","country":"DE","city":"Köln (Cologne)"},{"name":"Düsseldorf Airport","lat":51.2895,"lng":6.7668,"iata":"DUS","type":"large","country":"DE","city":"Düsseldorf"},{"name":"Munich Airport","lat":48.3538,"lng":11.7861,"iata":"MUC","type":"large","country":"DE","city":"Munich"},{"name":"Nuremberg Airport","lat":49.4987,"lng":11.0781,"iata":"NUE","type":"large","country":"DE","city":"Nuremberg"},{"name":"Leipzig/Halle Airport","lat":51.4207,"lng":12.2327,"iata":"LEJ","type":"large","country":"DE","city":"Schkeuditz"},{"name":"Saarbrücken Airport","lat":49.2145,"lng":7.1097,"iata":"SCN","type":"medium","country":"DE","city":"Saarbrücken"},{"name":"Stuttgart Airport","lat":48.6899,"lng":9.222,"iata":"STR","type":"large","country":"DE","city":"Stuttgart"},{"name":"Hannover Airport","lat":52.4611,"lng":9.6851,"iata":"HAJ","type":"large","country":"DE","city":"Hannover"},{"name":"Bremen Airport","lat":53.0468,"lng":8.7893,"iata":"BRE","type":"large","country":"DE","city":"Bremen"},{"name":"Frankfurt-Egelsbach Airport","lat":49.96,"lng":8.643,"iata":"","type":"medium","country":"DE","city":"Egelsbach"},{"name":"Frankfurt-Hahn Airport","lat":49.9464,"lng":7.2617,"iata":"HHN","type":"large","country":"DE","city":"Frankfurt am Main (Lautzenhausen)"},{"name":"Mannheim-City Airport","lat":49.4731,"lng":8.5142,"iata":"MHG","type":"medium","country":"DE","city":"Mannheim"},{"name":"Mainz-Finthen Airfield","lat":49.9675,"lng":8.1472,"iata":"","type":"medium","country":"DE","city":"Mainz"},{"name":"Eisenach-Kindel Airport","lat":50.9916,"lng":10.4797,"iata":"EIB","type":"medium","country":"DE","city":"Hörselberg-Hainich"},{"name":"Siegerland Airport","lat":50.7077,"lng":8.083,"iata":"SGE","type":"medium","country":"DE","city":"Burbach"},{"name":"Hamburg-Finkenwerder Airport","lat":53.5353,"lng":9.8356,"iata":"XFW","type":"medium","country":"DE","city":"Hamburg"},{"name":"Kiel-Holtenau Airport","lat":54.3796,"lng":10.1453,"iata":"KEL","type":"medium","country":"DE","city":"Kiel"},{"name":"Lübeck Blankensee Airport","lat":53.8054,"lng":10.7192,"iata":"LBC","type":"medium","country":"DE","city":"Lübeck"},{"name":"Memmingen Allgau Airport","lat":47.9881,"lng":10.2382,"iata":"FMM","type":"large","country":"DE","city":"Memmingen"},{"name":"Bielefeld Airport","lat":51.9647,"lng":8.5444,"iata":"BFE","type":"medium","country":"DE","city":"Bielefeld"},{"name":"Mönchengladbach Airport","lat":51.2303,"lng":6.5044,"iata":"MGL","type":"medium","country":"DE","city":"Mönchengladbach"},{"name":"Paderborn Lippstadt Airport","lat":51.6125,"lng":8.6175,"iata":"PAD","type":"large","country":"DE","city":"Büren"},{"name":"Weeze (Niederrhein) Airport","lat":51.6014,"lng":6.1412,"iata":"NRN","type":"large","country":"DE","city":"Weeze"},{"name":"Dortmund Airport","lat":51.5183,"lng":7.6122,"iata":"DTM","type":"large","country":"DE","city":"Dortmund"},{"name":"Augsburg Airport","lat":48.4253,"lng":10.9317,"iata":"AGB","type":"medium","country":"DE","city":"Augsburg"},{"name":"Landshut Airfield","lat":48.512,"lng":12.0349,"iata":"","type":"medium","country":"DE","city":"Landshut"},{"name":"Oberpfaffenhofen Airport","lat":48.0814,"lng":11.2831,"iata":"OBF","type":"medium","country":"DE","city":"Weßling"},{"name":"Bodensee Airport Friedrichshafen","lat":47.6713,"lng":9.5115,"iata":"FDH","type":"large","country":"DE","city":"Friedrichshafen"},{"name":"Bamberg-Breitenau Airfield","lat":49.9204,"lng":10.9142,"iata":"","type":"medium","country":"DE","city":"Bamberg"},{"name":"Bayreuth Airport","lat":49.985,"lng":11.64,"iata":"BYU","type":"medium","country":"DE","city":"Bindlach"},{"name":"Hof-Plauen Airport","lat":50.2885,"lng":11.8529,"iata":"HOQ","type":"medium","country":"DE","city":"Hof"},{"name":"Karlsruhe Baden-Baden Airport","lat":48.7794,"lng":8.0805,"iata":"FKB","type":"large","country":"DE","city":"Rheinmünster"},{"name":"Donaueschingen-Villingen Airfield","lat":47.9733,"lng":8.5222,"iata":"","type":"medium","country":"DE","city":"Donaueschingen"},{"name":"Lahr Airport","lat":48.3693,"lng":7.8277,"iata":"LHA","type":"medium","country":"DE","city":"Lahr/Schwarzwald"},{"name":"Mengen-Hohentengen Airfield","lat":48.0539,"lng":9.3728,"iata":"","type":"medium","country":"DE","city":"Mengen"},{"name":"Adolf Würth Airport","lat":49.1183,"lng":9.7839,"iata":"","type":"medium","country":"DE","city":"Schwäbisch Hall"},{"name":"Zerbst Airfield","lat":52.0008,"lng":12.1486,"iata":"","type":"medium","country":"DE","city":"Straguth"},{"name":"Braunschweig-Wolfsburg Airport","lat":52.3192,"lng":10.5561,"iata":"BWE","type":"medium","country":"DE","city":"Braunschweig"},{"name":"Kassel Airport","lat":51.4184,"lng":9.3916,"iata":"KSF","type":"large","country":"DE","city":"Calden"},{"name":"Westerland Sylt Airport","lat":54.9132,"lng":8.3405,"iata":"GWT","type":"medium","country":"DE","city":"Sylt"},{"name":"Ämari Air Base","lat":59.2596,"lng":24.2048,"iata":"","type":"medium","country":"EE","city":"Keila"},{"name":"Kärdla Airport","lat":58.9908,"lng":22.8307,"iata":"KDL","type":"medium","country":"EE","city":"Kärdla"},{"name":"Kuressaare Airport","lat":58.2299,"lng":22.5095,"iata":"URE","type":"medium","country":"EE","city":"Kuressaare"},{"name":"Pärnu Airport","lat":58.419,"lng":24.4728,"iata":"EPU","type":"medium","country":"EE","city":"Pärnu"},{"name":"Berenice International Airport / Banas Cape Air Base","lat":23.9804,"lng":35.4603,"iata":"EES","type":"large","country":"EG","city":"Berenice Troglodytica"},{"name":"Lennart Meri Tallinn Airport","lat":59.4132,"lng":24.8326,"iata":"TLL","type":"large","country":"EE","city":"Tallinn"},{"name":"Tartu Airport","lat":58.3074,"lng":26.6865,"iata":"TAY","type":"medium","country":"EE","city":"Tartu"},{"name":"Enontekio Airport","lat":68.3626,"lng":23.4243,"iata":"ENF","type":"medium","country":"FI","city":"Enontekio"},{"name":"Halli Airport","lat":61.856,"lng":24.7867,"iata":"KEV","type":"medium","country":"FI","city":"Jämsä"},{"name":"Helsinki Vantaa Airport","lat":60.3184,"lng":24.9633,"iata":"HEL","type":"large","country":"FI","city":"Helsinki (Vantaa)"},{"name":"Kitee Airport","lat":62.1661,"lng":30.0736,"iata":"KTQ","type":"medium","country":"FI","city":"Kitee"},{"name":"Ivalo Airport","lat":68.6073,"lng":27.4053,"iata":"IVL","type":"large","country":"FI","city":"Ivalo"},{"name":"Joensuu Airport","lat":62.6588,"lng":29.6194,"iata":"JOE","type":"medium","country":"FI","city":"Joensuu"},{"name":"Jyväskylä Airport","lat":62.3995,"lng":25.6783,"iata":"JYV","type":"medium","country":"FI","city":"Jyväskylän Maalaiskunta"},{"name":"Kauhava Airfield","lat":63.1271,"lng":23.0514,"iata":"KAU","type":"medium","country":"FI","city":"Kauhava"},{"name":"Kemi-Tornio Airport","lat":65.7787,"lng":24.5821,"iata":"KEM","type":"medium","country":"FI","city":"Kemi / Tornio"},{"name":"Kajaani Airport","lat":64.2855,"lng":27.6924,"iata":"KAJ","type":"medium","country":"FI","city":"Kajaani"},{"name":"Kauhajoki Airfield","lat":62.4632,"lng":22.3908,"iata":"KHJ","type":"medium","country":"FI","city":"Kauhajoki"},{"name":"Kokkola-Pietarsaari Airport","lat":63.7212,"lng":23.1431,"iata":"KOK","type":"medium","country":"FI","city":"Kokkola / Kruunupyy"},{"name":"Kuusamo Airport","lat":65.9876,"lng":29.2394,"iata":"KAO","type":"medium","country":"FI","city":"Kuusamo"},{"name":"Kittilä International Airport","lat":67.701,"lng":24.8468,"iata":"KTT","type":"large","country":"FI","city":"Kittilä"},{"name":"Kuopio Airport","lat":63.0071,"lng":27.7978,"iata":"KUO","type":"large","country":"FI","city":"Kuopio / Siilinjärvi"},{"name":"Lappeenranta Airport","lat":61.0446,"lng":28.1447,"iata":"LPP","type":"large","country":"FI","city":"Lappeenranta"},{"name":"Mariehamn Airport","lat":60.1222,"lng":19.8982,"iata":"MHQ","type":"large","country":"FI","city":"Mariehamn"},{"name":"Mikkeli Airport","lat":61.6866,"lng":27.2018,"iata":"MIK","type":"medium","country":"FI","city":"Mikkeli"},{"name":"Oulu Airport","lat":64.9301,"lng":25.3546,"iata":"OUL","type":"large","country":"FI","city":"Oulu / Oulunsalo"},{"name":"Pori Airport","lat":61.4617,"lng":21.8,"iata":"POR","type":"medium","country":"FI","city":"Pori"},{"name":"Helsinki East-Redstone Aerodrome","lat":60.4792,"lng":26.5939,"iata":"","type":"medium","country":"FI","city":"Helsinki (Pyhtää)"},{"name":"Rovaniemi Airport","lat":66.5633,"lng":25.8298,"iata":"RVN","type":"large","country":"FI","city":"Rovaniemi"},{"name":"Savonlinna Airport","lat":61.9431,"lng":28.9451,"iata":"SVL","type":"medium","country":"FI","city":"Savonlinna"},{"name":"Seinäjoki Airport","lat":62.6921,"lng":22.8323,"iata":"SJY","type":"medium","country":"FI","city":"Seinäjoki / Ilmajoki"},{"name":"Sodankyla Airport","lat":67.395,"lng":26.6191,"iata":"SOT","type":"medium","country":"FI","city":"Sodankyla"},{"name":"Tampere-Pirkkala Airport","lat":61.4141,"lng":23.6044,"iata":"TMP","type":"large","country":"FI","city":"Tampere / Pirkkala"},{"name":"Turku Airport","lat":60.5141,"lng":22.2628,"iata":"TKU","type":"large","country":"FI","city":"Turku"},{"name":"Utti Air Base","lat":60.8964,"lng":26.9384,"iata":"UTI","type":"medium","country":"FI","city":"Utti / Valkeala"},{"name":"Vaasa Airport","lat":63.0502,"lng":21.7625,"iata":"VAA","type":"large","country":"FI","city":"Vaasa"},{"name":"Varkaus Airport","lat":62.1711,"lng":27.8686,"iata":"VRK","type":"medium","country":"FI","city":"Varkaus / Joroinen"},{"name":"Ylivieska Airfield","lat":64.0547,"lng":24.7253,"iata":"YLI","type":"medium","country":"FI","city":"Ylivieska"},{"name":"Bilbeis 2 Airfield","lat":30.4206,"lng":31.6789,"iata":"","type":"medium","country":"EG","city":"Bilbeis"},{"name":"Belfast International Airport","lat":54.6575,"lng":-6.2158,"iata":"BFS","type":"large","country":"GB","city":"Belfast"},{"name":"Enniskillen/St Angelo Airport","lat":54.3983,"lng":-7.6512,"iata":"ENK","type":"medium","country":"GB","city":"Enniskillen, Fermanagh and Omagh"},{"name":"George Best Belfast City Airport","lat":54.6181,"lng":-5.8725,"iata":"BHD","type":"medium","country":"GB","city":"Belfast"},{"name":"City of Derry Airport","lat":55.0428,"lng":-7.1611,"iata":"LDY","type":"medium","country":"GB","city":"Derry, Derry and Strabane"},{"name":"Birmingham Airport","lat":52.4539,"lng":-1.748,"iata":"BHX","type":"large","country":"GB","city":"Birmingham, West Midlands"},{"name":"Coventry Airport","lat":52.3697,"lng":-1.4797,"iata":"CVT","type":"medium","country":"GB","city":"Coventry, West Midlands"},{"name":"Gloucestershire Airport","lat":51.8942,"lng":-2.1672,"iata":"GLO","type":"medium","country":"GB","city":"Staverton, Gloucestershire"},{"name":"Nottingham City Airport","lat":52.92,"lng":-1.0792,"iata":"NQT","type":"medium","country":"GB","city":"Nottingham, Nottinghamshire"},{"name":"Manchester Airport","lat":53.3494,"lng":-2.2795,"iata":"MAN","type":"large","country":"GB","city":"Manchester, Greater Manchester"},{"name":"Royal Marines Base Chivenor","lat":51.0872,"lng":-4.1503,"iata":"","type":"medium","country":"GB","city":"Chivenor"},{"name":"MoD Boscombe Down","lat":51.1522,"lng":-1.7474,"iata":"","type":"medium","country":"GB","city":"Salisbury, Wiltshire"},{"name":"RNAS Culdrose","lat":50.0861,"lng":-5.2557,"iata":"","type":"medium","country":"GB","city":"Helston"},{"name":"MOD St Athan","lat":51.4052,"lng":-3.4333,"iata":"","type":"medium","country":"GB","city":"St Athan, Vale of Glamorgan"},{"name":"RNAS Yeovilton","lat":51.0094,"lng":-2.6388,"iata":"YEO","type":"medium","country":"GB","city":"Yeovil, Somerset"},{"name":"Campbeltown Airport","lat":55.4372,"lng":-5.6864,"iata":"CAL","type":"medium","country":"GB","city":"Campbeltown"},{"name":"Eday Airport","lat":59.1906,"lng":-2.7722,"iata":"EOI","type":"medium","country":"GB","city":"Eday"},{"name":"Haverfordwest Airport","lat":51.8331,"lng":-4.9611,"iata":"HAW","type":"medium","country":"GB","city":"Haverfordwest"},{"name":"Cardiff International Airport","lat":51.3967,"lng":-3.3433,"iata":"CWL","type":"large","country":"GB","city":"Cardiff"},{"name":"Swansea Airport","lat":51.6014,"lng":-4.071,"iata":"SWS","type":"medium","country":"GB","city":"Swansea"},{"name":"Bristol Airport","lat":51.3823,"lng":-2.7165,"iata":"BRS","type":"large","country":"GB","city":"Bristol"},{"name":"Liverpool John Lennon Airport","lat":53.3349,"lng":-2.8496,"iata":"LPL","type":"large","country":"GB","city":"Liverpool"},{"name":"London Luton Airport","lat":51.8747,"lng":-0.3683,"iata":"LTN","type":"large","country":"GB","city":"Luton, Luton"},{"name":"Bournemouth Airport","lat":50.7805,"lng":-1.8396,"iata":"BOH","type":"medium","country":"GB","city":"Bournemouth"},{"name":"Southampton Airport","lat":50.9503,"lng":-1.3568,"iata":"SOU","type":"medium","country":"GB","city":"Southampton"},{"name":"Lasham Airfield","lat":51.1874,"lng":-1.0317,"iata":"","type":"medium","country":"GB","city":"Alton, Hampshire"},{"name":"Cornwall Airport Newquay","lat":50.4406,"lng":-4.9954,"iata":"NQY","type":"medium","country":"GB","city":"Newquay"},{"name":"Alderney Airport","lat":49.7061,"lng":-2.2147,"iata":"ACI","type":"medium","country":"GG","city":"Saint Anne"},{"name":"Guernsey Airport","lat":49.435,"lng":-2.602,"iata":"GCI","type":"medium","country":"GG","city":"Saint Peter Port"},{"name":"Jersey Airport","lat":49.2079,"lng":-2.1955,"iata":"JER","type":"medium","country":"JE","city":"St. Peter"},{"name":"Brighton City Airport","lat":50.8356,"lng":-0.2972,"iata":"ESH","type":"medium","country":"GB","city":"Brighton, East Sussex"},{"name":"London Biggin Hill Airport","lat":51.3308,"lng":0.0325,"iata":"BQH","type":"medium","country":"GB","city":"London"},{"name":"London Gatwick Airport","lat":51.1487,"lng":-0.1857,"iata":"LGW","type":"large","country":"GB","city":"London"},{"name":"London City Airport","lat":51.5053,"lng":0.0553,"iata":"LCY","type":"medium","country":"GB","city":"London"},{"name":"Farnborough Airport","lat":51.2758,"lng":-0.7763,"iata":"FAB","type":"medium","country":"GB","city":"Farnborough, Hampshire"},{"name":"Blackbushe Airport","lat":51.3239,"lng":-0.8475,"iata":"BBS","type":"medium","country":"GB","city":"Camberley, Surrey"},{"name":"London Heathrow Airport","lat":51.4707,"lng":-0.4599,"iata":"LHR","type":"large","country":"GB","city":"London"},{"name":"London Southend Airport","lat":51.5706,"lng":0.6936,"iata":"SEN","type":"medium","country":"GB","city":"Southend-on-Sea, Essex"},{"name":"Lydd London Ashford Airport","lat":50.9562,"lng":0.9391,"iata":"LYX","type":"medium","country":"GB","city":"Romney Marsh, Kent"},{"name":"Carlisle Lake District Airport","lat":54.9375,"lng":-2.8092,"iata":"CAX","type":"medium","country":"GB","city":"Carlisle, Cumbria"},{"name":"Blackpool Airport","lat":53.7717,"lng":-3.0286,"iata":"BLK","type":"medium","country":"GB","city":"Blackpool"},{"name":"Humberside Airport","lat":53.5762,"lng":-0.3495,"iata":"HUY","type":"medium","country":"GB","city":"Grimsby, Lincolnshire"},{"name":"Barrow Walney Island Airport","lat":54.1286,"lng":-3.2675,"iata":"BWF","type":"medium","country":"GB","city":"Barrow-in-Furness"},{"name":"Leeds Bradford Airport","lat":53.8659,"lng":-1.6606,"iata":"LBA","type":"large","country":"GB","city":"Leeds, West Yorkshire"},{"name":"Warton Aerodrome","lat":53.7451,"lng":-2.8831,"iata":"WRT","type":"medium","country":"GB","city":"Warton"},{"name":"Hawarden Airport","lat":53.1781,"lng":-2.9778,"iata":"CEG","type":"medium","country":"GB","city":"Broughton"},{"name":"Isle of Man Airport","lat":54.0831,"lng":-4.6239,"iata":"IOM","type":"large","country":"IM","city":"Castletown"},{"name":"Newcastle International Airport","lat":55.038,"lng":-1.6896,"iata":"NCL","type":"large","country":"GB","city":"Newcastle upon Tyne, Tyne and Wear"},{"name":"Teesside International Airport","lat":54.5092,"lng":-1.4294,"iata":"MME","type":"medium","country":"GB","city":"Darlington, Durham"},{"name":"East Midlands Airport","lat":52.8311,"lng":-1.3281,"iata":"EMA","type":"large","country":"GB","city":"Nottingham, Leicestershire"},{"name":"RAF Spadeadam","lat":55.05,"lng":-2.55,"iata":"","type":"medium","country":"GB","city":"Spadeadam"},{"name":"RAF Shawbury","lat":52.7982,"lng":-2.668,"iata":"","type":"medium","country":"GB","city":"Shrewsbury, Shropshire"},{"name":"Anglesey Airport","lat":53.2481,"lng":-4.5353,"iata":"VLY","type":"medium","country":"GB","city":"Angelsey"},{"name":"Kirkwall Airport","lat":58.9579,"lng":-2.9051,"iata":"KOI","type":"medium","country":"GB","city":"Kirkwall, Orkney Islands"},{"name":"Sumburgh Airport","lat":59.8789,"lng":-1.2956,"iata":"LSI","type":"medium","country":"GB","city":"Lerwick, Shetland"},{"name":"Wick John O'Groats Airport","lat":58.4589,"lng":-3.0931,"iata":"WIC","type":"medium","country":"GB","city":"Wick"},{"name":"Aberdeen International Airport","lat":57.2019,"lng":-2.1978,"iata":"ABZ","type":"large","country":"GB","city":"Aberdeen"},{"name":"Inverness Airport","lat":57.5425,"lng":-4.0475,"iata":"INV","type":"medium","country":"GB","city":"Inverness"},{"name":"Glasgow Airport","lat":55.8719,"lng":-4.4331,"iata":"GLA","type":"large","country":"GB","city":"Glasgow"},{"name":"Edinburgh Airport","lat":55.9501,"lng":-3.3723,"iata":"EDI","type":"large","country":"GB","city":"Edinburgh"},{"name":"Islay Airport","lat":55.6827,"lng":-6.2575,"iata":"ILY","type":"medium","country":"GB","city":"Isle of Islay, Argyll and Bute"},{"name":"Glasgow Prestwick Airport","lat":55.5015,"lng":-4.5772,"iata":"PIK","type":"large","country":"GB","city":"Prestwick, South Ayrshire"},{"name":"Benbecula Airport","lat":57.4811,"lng":-7.3628,"iata":"BEB","type":"medium","country":"GB","city":"Balivanich"},{"name":"Dundee Airport","lat":56.4525,"lng":-3.0258,"iata":"DND","type":"medium","country":"GB","city":"Dundee"},{"name":"Stornoway Airport","lat":58.2156,"lng":-6.3311,"iata":"SYY","type":"medium","country":"GB","city":"Stornoway, Western Isles"},{"name":"Barra Airport","lat":57.0228,"lng":-7.4431,"iata":"BRR","type":"medium","country":"GB","city":"Eoligarry"},{"name":"Tiree Airport","lat":56.4992,"lng":-6.8692,"iata":"TRE","type":"medium","country":"GB","city":"Balemartine, Argyll and Bute"},{"name":"Leuchars Station Airfield","lat":56.374,"lng":-2.8689,"iata":"ADX","type":"medium","country":"GB","city":"Leuchars, Fife"},{"name":"RAF Lossiemouth","lat":57.7052,"lng":-3.3392,"iata":"LMO","type":"medium","country":"GB","city":"Lossiemouth, Moray"},{"name":"Cambridge City Airport","lat":52.205,"lng":0.175,"iata":"CBG","type":"medium","country":"GB","city":"Cambridge, Cambridgeshire"},{"name":"Norwich Airport","lat":52.6758,"lng":1.2828,"iata":"NWI","type":"medium","country":"GB","city":"Norwich, Norfolk"},{"name":"London Stansted Airport","lat":51.885,"lng":0.235,"iata":"STN","type":"large","country":"GB","city":"London, Essex"},{"name":"Cranfield Airport","lat":52.0722,"lng":-0.6167,"iata":"","type":"medium","country":"GB","city":"Cranfield, Central Bedfordshire"},{"name":"Exeter International Airport","lat":50.7343,"lng":-3.414,"iata":"EXT","type":"medium","country":"GB","city":"Exeter, Devon"},{"name":"London Oxford Airport","lat":51.8369,"lng":-1.32,"iata":"OXF","type":"medium","country":"GB","city":"Kidlington, Oxfordshire"},{"name":"RAF Benson","lat":51.6144,"lng":-1.096,"iata":"BEX","type":"medium","country":"GB","city":"Wallingford, Oxfordshire"},{"name":"RAF Lakenheath","lat":52.4095,"lng":0.5612,"iata":"LKZ","type":"medium","country":"GB","city":"Brandon, Suffolk"},{"name":"RAF Mildenhall","lat":52.3619,"lng":0.4864,"iata":"MHZ","type":"medium","country":"GB","city":"Bury Saint Edmunds, Suffolk"},{"name":"Wattisham Airfield","lat":52.1275,"lng":0.9562,"iata":"","type":"medium","country":"GB","city":"Ipswich, Suffolk"},{"name":"RAF Fairford","lat":51.6836,"lng":-1.7892,"iata":"FFD","type":"medium","country":"GB","city":"Fairford, Gloucestershire"},{"name":"RAF Brize Norton","lat":51.75,"lng":-1.5836,"iata":"BZZ","type":"medium","country":"GB","city":"Carterton, Oxfordshire"},{"name":"RAF Odiham","lat":51.2341,"lng":-0.9428,"iata":"ODH","type":"medium","country":"GB","city":"Hook, Hampshire"},{"name":"RAF Cosford","lat":52.6405,"lng":-2.3053,"iata":"","type":"medium","country":"GB","city":"Cosford, Shropshire"},{"name":"RAF Northolt","lat":51.553,"lng":-0.4182,"iata":"NHT","type":"medium","country":"GB","city":"Northolt, Greater London"},{"name":"RAF Coningsby","lat":53.093,"lng":-0.166,"iata":"QCY","type":"medium","country":"GB","city":"Lincoln, Lincolnshire"},{"name":"RAF Leeming","lat":54.2972,"lng":-1.5389,"iata":"","type":"medium","country":"GB","city":"Northallerton, North Yorkshire"},{"name":"Leeds East Airport","lat":53.8347,"lng":-1.1947,"iata":"","type":"medium","country":"GB","city":"Tadcaster, North Yorkshire"},{"name":"RAF Honington","lat":52.3426,"lng":0.7729,"iata":"BEQ","type":"medium","country":"GB","city":"Bury Saint Edmunds, Suffolk"},{"name":"RAF Wittering","lat":52.6126,"lng":-0.4765,"iata":"","type":"medium","country":"GB","city":"Peterborough, Cambridgeshire"},{"name":"RAF Waddington","lat":53.1662,"lng":-0.5238,"iata":"WTN","type":"medium","country":"GB","city":"Lincoln, Lincolnshire"},{"name":"RAF Topcliffe","lat":54.2041,"lng":-1.3803,"iata":"","type":"medium","country":"GB","city":"Thirsk, North Yorkshire"},{"name":"RAF Cranwell","lat":53.0273,"lng":-0.4931,"iata":"","type":"medium","country":"GB","city":"Sleaford, Lincolnshire"},{"name":"RAF Barkston Heath","lat":52.9606,"lng":-0.5594,"iata":"","type":"medium","country":"GB","city":"Grantham, Lincolnshire"},{"name":"RAF Marham","lat":52.6484,"lng":0.5507,"iata":"KNF","type":"medium","country":"GB","city":"King's Lynn, Norfolk"},{"name":"Mount Pleasant Airport / RAF Mount Pleasant","lat":-51.8226,"lng":-58.4458,"iata":"MPN","type":"large","country":"FK","city":"Mount Pleasant"},{"name":"Amsterdam Airport Schiphol","lat":52.3086,"lng":4.7639,"iata":"AMS","type":"large","country":"NL","city":"Amsterdam"},{"name":"Kempen Airport Budel","lat":51.2553,"lng":5.6014,"iata":"","type":"medium","country":"NL","city":"Weert"},{"name":"Maastricht Aachen Airport","lat":50.9111,"lng":5.7694,"iata":"MST","type":"large","country":"NL","city":"Maastricht"},{"name":"Deelen Air Base","lat":52.0606,"lng":5.8731,"iata":"","type":"medium","country":"NL","city":"Arnhem"},{"name":"Eindhoven Airport","lat":51.4501,"lng":5.3745,"iata":"EIN","type":"large","country":"NL","city":"Eindhoven"},{"name":"Groningen Airport Eelde","lat":53.1191,"lng":6.5777,"iata":"GRQ","type":"large","country":"NL","city":"Groningen"},{"name":"Gilze Rijen Air Base","lat":51.5674,"lng":4.9318,"iata":"GLZ","type":"medium","country":"NL","city":"Rijen"},{"name":"De Kooy Airfield / Den Helder Naval Air Station","lat":52.9234,"lng":4.7806,"iata":"DHR","type":"medium","country":"NL","city":"Den Helder"},{"name":"Lelystad Airport","lat":52.4532,"lng":5.5146,"iata":"LEY","type":"medium","country":"NL","city":"Lelystad"},{"name":"Leeuwarden Air Base","lat":53.2286,"lng":5.7606,"iata":"LWR","type":"medium","country":"NL","city":"Leeuwarden"},{"name":"Rotterdam The Hague Airport","lat":51.9569,"lng":4.4372,"iata":"RTM","type":"large","country":"NL","city":"Rotterdam"},{"name":"Twente Airport","lat":52.2758,"lng":6.8892,"iata":"ENS","type":"medium","country":"NL","city":"Enschede"},{"name":"Volkel Air Base","lat":51.6572,"lng":5.7078,"iata":"UDE","type":"medium","country":"NL","city":"Uden"},{"name":"Woensdrecht Air Base","lat":51.4491,"lng":4.342,"iata":"WOE","type":"medium","country":"NL","city":"Hoogerheide"},{"name":"Cork International Airport","lat":51.8413,"lng":-8.4911,"iata":"ORK","type":"large","country":"IE","city":"Cork"},{"name":"Donegal Airport","lat":55.0442,"lng":-8.341,"iata":"CFN","type":"medium","country":"IE","city":"Donegal"},{"name":"Dublin Airport","lat":53.4287,"lng":-6.2621,"iata":"DUB","type":"large","country":"IE","city":"Dublin"},{"name":"Ireland West Airport Knock","lat":53.9104,"lng":-8.817,"iata":"NOC","type":"large","country":"IE","city":"Charlestown"},{"name":"Kerry Airport","lat":52.1809,"lng":-9.5238,"iata":"KIR","type":"medium","country":"IE","city":"Farranfore"},{"name":"Casement Air Base","lat":53.3017,"lng":-6.4513,"iata":"","type":"medium","country":"IE","city":"Baldonnel"},{"name":"Shannon Airport","lat":52.702,"lng":-8.9248,"iata":"SNN","type":"large","country":"IE","city":"Shannon"},{"name":"Sligo Airport","lat":54.2802,"lng":-8.5992,"iata":"SXL","type":"medium","country":"IE","city":"Sligo"},{"name":"Waterford Airport","lat":52.1872,"lng":-7.087,"iata":"WAT","type":"medium","country":"IE","city":"Waterford"},{"name":"Weston Airport","lat":53.3516,"lng":-6.4904,"iata":"","type":"medium","country":"IE","city":"Leixlip"},{"name":"Aarhus Airport","lat":56.3033,"lng":10.6183,"iata":"AAR","type":"large","country":"DK","city":"Aarhus"},{"name":"Billund Airport","lat":55.7403,"lng":9.157,"iata":"BLL","type":"large","country":"DK","city":"Billund"},{"name":"Copenhagen Kastrup Airport","lat":55.6179,"lng":12.656,"iata":"CPH","type":"large","country":"DK","city":"Copenhagen"},{"name":"Esbjerg Airport","lat":55.5259,"lng":8.5534,"iata":"EBJ","type":"medium","country":"DK","city":"Esbjerg"},{"name":"Midtjyllands Airport / Air Base Karup","lat":56.2971,"lng":9.1043,"iata":"KRP","type":"medium","country":"DK","city":"Karup"},{"name":"Lolland Falster Maribo Airport","lat":54.6994,"lng":11.4382,"iata":"MRW","type":"medium","country":"DK","city":"Rødby"},{"name":"Odense Hans Christian Andersen Airport","lat":55.4753,"lng":10.3272,"iata":"ODE","type":"large","country":"DK","city":"Odense"},{"name":"Copenhagen Roskilde Airport","lat":55.5856,"lng":12.1314,"iata":"RKE","type":"medium","country":"DK","city":"Roskilde"},{"name":"Bornholm Airport","lat":55.0633,"lng":14.7596,"iata":"RNN","type":"medium","country":"DK","city":"Rønne"},{"name":"Sønderborg Airport","lat":54.9644,"lng":9.7917,"iata":"SGD","type":"medium","country":"DK","city":"Sønderborg"},{"name":"Sindal Airport","lat":57.5035,"lng":10.2294,"iata":"CNL","type":"medium","country":"DK","city":"Sindal"},{"name":"Skrydstrup Air Base","lat":55.221,"lng":9.267,"iata":"SKS","type":"medium","country":"DK","city":"Vojens"},{"name":"Skive Airport","lat":56.5502,"lng":9.173,"iata":"SQW","type":"medium","country":"DK","city":"Skive"},{"name":"Thisted Airport","lat":57.0688,"lng":8.7052,"iata":"TED","type":"medium","country":"DK","city":"Thisted"},{"name":"Kolding Vamdrup Airfield","lat":55.4363,"lng":9.3309,"iata":"","type":"medium","country":"DK","city":"Kolding / Vamdrup"},{"name":"Vágar Airport","lat":62.0633,"lng":-7.2758,"iata":"FAE","type":"large","country":"FO","city":"Vágar"},{"name":"Stauning Vestjylland  Airport","lat":55.9901,"lng":8.3539,"iata":"STA","type":"medium","country":"DK","city":"Skjern"},{"name":"Aalborg Airport","lat":57.0948,"lng":9.8499,"iata":"AAL","type":"large","country":"DK","city":"Aalborg"},{"name":"Luxembourg-Findel International Airport","lat":49.6268,"lng":6.2121,"iata":"LUX","type":"large","country":"LU","city":"Luxembourg"},{"name":"Ålesund Airport","lat":62.5604,"lng":6.1108,"iata":"AES","type":"large","country":"NO","city":"Ålesund"},{"name":"Andøya Airport, Andenes","lat":69.2952,"lng":16.1394,"iata":"ANX","type":"medium","country":"NO","city":"Andenes"},{"name":"Alta Airport","lat":69.9761,"lng":23.3717,"iata":"ALF","type":"medium","country":"NO","city":"Alta"},{"name":"Brønnøysund Airport, Brønnøy","lat":65.4611,"lng":12.2175,"iata":"BNN","type":"medium","country":"NO","city":"Brønnøy"},{"name":"Bodø Airport","lat":67.2692,"lng":14.3653,"iata":"BOO","type":"large","country":"NO","city":"Bodø"},{"name":"Bergen Airport, Flesland","lat":60.2934,"lng":5.2181,"iata":"BGO","type":"large","country":"NO","city":"Bergen"},{"name":"Båtsfjord Airport","lat":70.6003,"lng":29.6926,"iata":"BJF","type":"medium","country":"NO","city":"Båtsfjord"},{"name":"Berlevåg Airport","lat":70.8715,"lng":29.0341,"iata":"BVG","type":"medium","country":"NO","city":"Berlevåg"},{"name":"Kristiansand Airport","lat":58.2042,"lng":8.0854,"iata":"KRS","type":"large","country":"NO","city":"Kristiansand(Kjevik)"},{"name":"Bardufoss Airport","lat":69.0558,"lng":18.5404,"iata":"BDU","type":"medium","country":"NO","city":"Målselv"},{"name":"Harstad/Narvik Airport","lat":68.4913,"lng":16.6781,"iata":"EVE","type":"large","country":"NO","city":"Evenes"},{"name":"Florø Airport","lat":61.5836,"lng":5.0247,"iata":"FRO","type":"medium","country":"NO","city":"Florø"},{"name":"Oslo-Gardermoen International Airport","lat":60.1939,"lng":11.1004,"iata":"OSL","type":"large","country":"NO","city":"Oslo (Gardermoen)"},{"name":"Haugesund Airport, Karmøy","lat":59.3453,"lng":5.2084,"iata":"HAU","type":"medium","country":"NO","city":"Karmøy"},{"name":"Hammerfest Airport","lat":70.6797,"lng":23.6686,"iata":"HFT","type":"medium","country":"NO","city":"Hammerfest"},{"name":"Honningsvåg Airport, Valan","lat":71.0097,"lng":25.9836,"iata":"HVG","type":"medium","country":"NO","city":"Honningsvåg"},{"name":"Kristiansund Airport, Kvernberget","lat":63.1118,"lng":7.8245,"iata":"KSU","type":"medium","country":"NO","city":"Kvernberget"},{"name":"Kirkenes Airport, Høybuktmoen","lat":69.7258,"lng":29.8913,"iata":"KKN","type":"medium","country":"NO","city":"Kirkenes"},{"name":"Leknes Airport","lat":68.1525,"lng":13.6094,"iata":"LKN","type":"medium","country":"NO","city":"Leknes"},{"name":"Mehamn Airport","lat":71.0297,"lng":27.8267,"iata":"MEH","type":"medium","country":"NO","city":"Mehamn"},{"name":"Molde Airport, Årø","lat":62.7447,"lng":7.2625,"iata":"MOL","type":"medium","country":"NO","city":"Årø"},{"name":"Mosjøen Airport, Kjærstad","lat":65.784,"lng":13.2149,"iata":"MJF","type":"medium","country":"NO","city":"Mosjøen"},