{
  "refineries": [
    {"name":"Jamnagar (Reliance)","country":"India","lat":22.3450,"lng":69.8597,"capacity_kbd":1400},
    {"name":"Paraguaná (Amuay/Cardón)","country":"Venezuela","lat":11.7500,"lng":-70.2100,"capacity_kbd":955},
    {"name":"SK Energy Ulsan","country":"Corea del Sur","lat":35.5012,"lng":129.3870,"capacity_kbd":840},
    {"name":"ADNOC Ruwais","country":"Emiratos Árabes Unidos","lat":24.1400,"lng":52.7300,"capacity_kbd":817},
    {"name":"GS Caltex Yeosu","country":"Corea del Sur","lat":34.8500,"lng":127.7400,"capacity_kbd":800},
    {"name":"S-Oil Onsan","country":"Corea del Sur","lat":35.4250,"lng":129.3520,"capacity_kbd":669},
    {"name":"Motiva Port Arthur","country":"EE. UU.","lat":29.8580,"lng":-93.9300,"capacity_kbd":640},
    {"name":"Dangote","country":"Nigeria","lat":6.4500,"lng":3.6300,"capacity_kbd":650},
    {"name":"Marathon Galveston Bay","country":"EE. UU.","lat":29.3640,"lng":-94.9180,"capacity_kbd":631},
    {"name":"ExxonMobil Beaumont","country":"EE. UU.","lat":30.0840,"lng":-94.0780,"capacity_kbd":630},
    {"name":"Marathon Garyville","country":"EE. UU.","lat":30.0560,"lng":-90.6230,"capacity_kbd":597},
    {"name":"Al-Zour","country":"Kuwait","lat":28.7050,"lng":48.3500,"capacity_kbd":615},
    {"name":"Jurong Island (ExxonMobil)","country":"Singapur","lat":1.2680,"lng":103.6960,"capacity_kbd":592},
    {"name":"ExxonMobil Baytown","country":"EE. UU.","lat":29.7370,"lng":-94.9780,"capacity_kbd":561},
    {"name":"Ras Tanura (Aramco)","country":"Arabia Saudí","lat":26.6420,"lng":50.1580,"capacity_kbd":550},
    {"name":"Formosa Mailiao","country":"Taiwán","lat":23.7960,"lng":120.1880,"capacity_kbd":540},
    {"name":"ExxonMobil Baton Rouge","country":"EE. UU.","lat":30.4900,"lng":-91.1900,"capacity_kbd":522},
    {"name":"Hyundai Oilbank Daesan","country":"Corea del Sur","lat":37.0050,"lng":126.3600,"capacity_kbd":520},
    {"name":"Shell Pulau Bukom","country":"Singapur","lat":1.2240,"lng":103.7660,"capacity_kbd":500},
    {"name":"Mina Al-Ahmadi","country":"Kuwait","lat":29.0680,"lng":48.1340,"capacity_kbd":466},
    {"name":"SATORP Jubail","country":"Arabia Saudí","lat":27.0000,"lng":49.5800,"capacity_kbd":460},
    {"name":"YASREF Yanbu","country":"Arabia Saudí","lat":24.0500,"lng":38.0600,"capacity_kbd":430},
    {"name":"PETRONAS RAPID Pengerang","country":"Malasia","lat":1.3600,"lng":104.1700,"capacity_kbd":300},
    {"name":"PetroRabigh","country":"Arabia Saudí","lat":22.7000,"lng":39.0300,"capacity_kbd":400},
    {"name":"Shell Pernis (Rotterdam)","country":"Países Bajos","lat":51.8840,"lng":4.3870,"capacity_kbd":404},
    {"name":"BP Whiting","country":"EE. UU.","lat":41.6700,"lng":-87.4800,"capacity_kbd":440},
    {"name":"Phillips 66 Wood River","country":"EE. UU.","lat":38.8600,"lng":-90.0900,"capacity_kbd":356},
    {"name":"Tüpraş İzmit","country":"Turquía","lat":40.7600,"lng":29.8800,"capacity_kbd":250},
    {"name":"Pertamina Cilacap","country":"Indonesia","lat":-7.7300,"lng":109.0100,"capacity_kbd":348},
    {"name":"Nayara Vadinar","country":"India","lat":22.4700,"lng":69.7200,"capacity_kbd":405},
    {"name":"IOCL Paradip","country":"India","lat":20.2900,"lng":86.6100,"capacity_kbd":300},
    {"name":"MRPL Mangalore","country":"India","lat":12.9600,"lng":74.8500,"capacity_kbd":300},
    {"name":"BPCL Kochi","country":"India","lat":9.9700,"lng":76.2400,"capacity_kbd":310},
    {"name":"Pemex Salina Cruz","country":"México","lat":16.1700,"lng":-95.1900,"capacity_kbd":330},
    {"name":"Olmeca (Dos Bocas)","country":"México","lat":18.4300,"lng":-93.1900,"capacity_kbd":340},
    {"name":"Abadan","country":"Irán","lat":30.3600,"lng":48.2900,"capacity_kbd":400},
    {"name":"Bandar Abbas","country":"Irán","lat":27.2000,"lng":56.3700,"capacity_kbd":330},
    {"name":"Isfahán","country":"Irán","lat":32.7600,"lng":51.5300,"capacity_kbd":375},
    {"name":"Galp Sines","country":"Portugal","lat":37.9500,"lng":-8.8200,"capacity_kbd":220},
    {"name":"TotalEnergies Antwerp","country":"Bélgica","lat":51.2900,"lng":4.3300,"capacity_kbd":338},
    {"name":"Laffan (Ras Laffan)","country":"Catar","lat":25.9100,"lng":51.5700,"capacity_kbd":292},
    {"name":"Lukoil Neftohim Burgas","country":"Bulgaria","lat":42.4800,"lng":27.3300,"capacity_kbd":190},
    {"name":"Valero St. Charles","country":"EE. UU.","lat":29.9900,"lng":-90.4200,"capacity_kbd":340},
    {"name":"Citgo Lake Charles","country":"EE. UU.","lat":30.2300,"lng":-93.3000,"capacity_kbd":425},
    {"name":"Chevron Pascagoula","country":"EE. UU.","lat":30.3500,"lng":-88.5600,"capacity_kbd":356},
    {"name":"Chevron El Segundo","country":"EE. UU.","lat":33.9000,"lng":-118.4100,"capacity_kbd":290},
    {"name":"Chevron Richmond","country":"EE. UU.","lat":37.9400,"lng":-122.3900,"capacity_kbd":245},
    {"name":"Pemex Deer Park","country":"EE. UU.","lat":29.7200,"lng":-95.1300,"capacity_kbd":340},
    {"name":"Thai Oil Sriracha","country":"Tailandia","lat":13.1000,"lng":100.9000,"capacity_kbd":275},
    {"name":"Map Ta Phut (PTTGC/IRPC)","country":"Tailandia","lat":12.7000,"lng":101.1500,"capacity_kbd":280},
    {"name":"ENEOS Mizushima","country":"Japón","lat":34.5100,"lng":133.7300,"capacity_kbd":380},
    {"name":"ENEOS Negishi","country":"Japón","lat":35.4200,"lng":139.6400,"capacity_kbd":270}
  ],
  "lng_terminals": [
    {"name":"Ras Laffan","country":"Catar","lat":25.9080,"lng":51.5780,"kind":"exportación"},
    {"name":"Sabine Pass","country":"EE. UU.","lat":29.7400,"lng":-93.8870,"kind":"exportación"},
    {"name":"Plaquemines","country":"EE. UU.","lat":29.4300,"lng":-89.7300,"kind":"exportación"},
    {"name":"Corpus Christi","country":"EE. UU.","lat":27.8480,"lng":-97.2900,"kind":"exportación"},
    {"name":"Cameron","country":"EE. UU.","lat":29.9700,"lng":-93.3300,"kind":"exportación"},
    {"name":"Freeport","country":"EE. UU.","lat":28.9400,"lng":-95.3100,"kind":"exportación"},
    {"name":"Calcasieu Pass","country":"EE. UU.","lat":29.7700,"lng":-93.3400,"kind":"exportación"},
    {"name":"Golden Pass","country":"EE. UU.","lat":29.7700,"lng":-93.9300,"kind":"exportación"},
    {"name":"Cove Point","country":"EE. UU.","lat":38.4000,"lng":-76.3900,"kind":"exportación"},
    {"name":"North West Shelf (Karratha)","country":"Australia","lat":-20.6300,"lng":116.7700,"kind":"exportación"},
    {"name":"Gorgon (Barrow Island)","country":"Australia","lat":-20.7900,"lng":115.4500,"kind":"exportación"},
    {"name":"Wheatstone (Onslow)","country":"Australia","lat":-21.7900,"lng":115.0100,"kind":"exportación"},
    {"name":"Pluto (Karratha)","country":"Australia","lat":-20.6300,"lng":116.7300,"kind":"exportación"},
    {"name":"Ichthys (Darwin)","country":"Australia","lat":-12.5100,"lng":130.9000,"kind":"exportación"},
    {"name":"Gladstone (Curtis Island)","country":"Australia","lat":-23.7760,"lng":151.2100,"kind":"exportación"},
    {"name":"Yamal (Sabetta)","country":"Rusia","lat":71.2600,"lng":72.0700,"kind":"exportación"},
    {"name":"Sakhalin-2 (Prigorodnoye)","country":"Rusia","lat":46.6300,"lng":143.0900,"kind":"exportación"},
    {"name":"Arctic LNG 2 (Utrenneye)","country":"Rusia","lat":71.3000,"lng":76.4000,"kind":"exportación"},
    {"name":"Bonny Island (NLNG)","country":"Nigeria","lat":4.4200,"lng":7.1600,"kind":"exportación"},
    {"name":"Bontang","country":"Indonesia","lat":0.1300,"lng":117.4700,"kind":"exportación"},
    {"name":"Tangguh","country":"Indonesia","lat":-2.4000,"lng":133.0700,"kind":"exportación"},
    {"name":"MLNG Bintulu","country":"Malasia","lat":3.2000,"lng":113.0200,"kind":"exportación"},
    {"name":"Arzew (Bethioua)","country":"Argelia","lat":35.8100,"lng":-0.2400,"kind":"exportación"},
    {"name":"Skikda","country":"Argelia","lat":36.8800,"lng":6.9500,"kind":"exportación"},
    {"name":"Idku (ELNG)","country":"Egipto","lat":31.4300,"lng":30.2900,"kind":"exportación"},
    {"name":"Damietta","country":"Egipto","lat":31.4600,"lng":31.7600,"kind":"exportación"},
    {"name":"Hammerfest (Melkøya)","country":"Noruega","lat":70.6850,"lng":23.5970,"kind":"exportación"},
    {"name":"Angola LNG (Soyo)","country":"Angola","lat":-6.1100,"lng":12.3700,"kind":"exportación"},
    {"name":"Atlantic LNG (Point Fortin)","country":"Trinidad y Tobago","lat":10.1900,"lng":-61.6700,"kind":"exportación"},
    {"name":"Das Island","country":"Emiratos Árabes Unidos","lat":25.1500,"lng":52.8700,"kind":"exportación"},
    {"name":"GTA (Tortue/Ahmeyim)","country":"Mauritania/Senegal","lat":16.0500,"lng":-16.9000,"kind":"exportación"},
    {"name":"Zeebrugge","country":"Bélgica","lat":51.3450,"lng":3.1900,"kind":"importación"},
    {"name":"Gate (Rotterdam)","country":"Países Bajos","lat":51.9560,"lng":4.0150,"kind":"importación"},
    {"name":"Dunkerque","country":"Francia","lat":51.0300,"lng":2.1700,"kind":"importación"},
    {"name":"Świnoujście","country":"Polonia","lat":53.9100,"lng":14.2700,"kind":"importación"},
    {"name":"Isle of Grain","country":"Reino Unido","lat":51.4500,"lng":0.7000,"kind":"importación"},
    {"name":"South Hook (Milford Haven)","country":"Reino Unido","lat":51.7050,"lng":-5.0300,"kind":"importación"},
    {"name":"Barcelona (Enagás)","country":"España","lat":41.3300,"lng":2.1600,"kind":"importación"},
    {"name":"Futtsu (JERA)","country":"Japón","lat":35.3100,"lng":139.8200,"kind":"importación"},
    {"name":"Sodegaura","country":"Japón","lat":35.4300,"lng":140.0000,"kind":"importación"},
    {"name":"Incheon (KOGAS)","country":"Corea del Sur","lat":37.3900,"lng":126.5900,"kind":"importación"},
    {"name":"Pyeongtaek (KOGAS)","country":"Corea del Sur","lat":36.9700,"lng":126.8200,"kind":"importación"},
    {"name":"Dahej (Petronet)","country":"India","lat":21.6900,"lng":72.5300,"kind":"importación"},
    {"name":"Dapeng (Shenzhen)","country":"China","lat":22.5800,"lng":114.5500,"kind":"importación"},
    {"name":"Yangshan (Shanghái)","country":"China","lat":30.6300,"lng":122.0700,"kind":"importación"}
  ],
  "fabs": [
    {"name":"TSMC Fab 18 (GigaFab)","country":"Taiwán","lat":23.1040,"lng":120.2740,"company":"TSMC","node":"3nm"},
    {"name":"TSMC Fab 12 (Hsinchu)","country":"Taiwán","lat":24.7740,"lng":121.0040,"company":"TSMC","node":"5nm"},
    {"name":"TSMC Fab 20 (Baoshan)","country":"Taiwán","lat":24.8200,"lng":121.0100,"company":"TSMC","node":"2nm"},
    {"name":"TSMC Fab 21 (Arizona)","country":"EE. UU.","lat":33.7200,"lng":-112.0900,"company":"TSMC","node":"4nm"},
    {"name":"TSMC JASM (Kumamoto)","country":"Japón","lat":32.9000,"lng":130.7800,"company":"TSMC","node":"22/28nm"},
    {"name":"Samsung Pyeongtaek","country":"Corea del Sur","lat":37.0700,"lng":127.0600,"company":"Samsung","node":"3nm"},
    {"name":"Samsung Hwaseong","country":"Corea del Sur","lat":37.2050,"lng":127.0500,"company":"Samsung","node":"5nm"},
    {"name":"Samsung Taylor","country":"EE. UU.","lat":30.5700,"lng":-97.4200,"company":"Samsung","node":"2nm"},
    {"name":"Samsung Austin","country":"EE. UU.","lat":30.3900,"lng":-97.6300,"company":"Samsung","node":"14nm"},
    {"name":"Samsung Xi'an (NAND)","country":"China","lat":34.1800,"lng":108.8400,"company":"Samsung","node":"NAND"},
    {"name":"SK Hynix M16 (Icheon)","country":"Corea del Sur","lat":37.2400,"lng":127.4700,"company":"SK Hynix","node":"DRAM"},
    {"name":"SK Hynix Cheongju (M15)","country":"Corea del Sur","lat":36.6300,"lng":127.4500,"company":"SK Hynix","node":"NAND"},
    {"name":"SK Hynix Wuxi","country":"China","lat":31.4900,"lng":120.2800,"company":"SK Hynix","node":"DRAM"},
    {"name":"Intel Ocotillo (Fab 52)","country":"EE. UU.","lat":33.2900,"lng":-111.9100,"company":"Intel","node":"18A"},
    {"name":"Intel Ronler Acres (Hillsboro)","country":"EE. UU.","lat":45.5400,"lng":-122.9500,"company":"Intel","node":"18A"},
    {"name":"Intel Fab 28 (Kiryat Gat)","country":"Israel","lat":31.6100,"lng":34.7700,"company":"Intel","node":"7nm"},
    {"name":"Intel Leixlip (Fab 34)","country":"Irlanda","lat":53.3700,"lng":-6.5000,"company":"Intel","node":"4nm"},
    {"name":"Intel Ohio One","country":"EE. UU.","lat":40.0900,"lng":-82.7400,"company":"Intel","node":"18A"},
    {"name":"Micron Boise","country":"EE. UU.","lat":43.5400,"lng":-116.2700,"company":"Micron","node":"DRAM"},
    {"name":"Micron Hiroshima","country":"Japón","lat":34.4000,"lng":132.7400,"company":"Micron","node":"DRAM"},
    {"name":"Micron Taichung (Fab 16)","country":"Taiwán","lat":24.2300,"lng":120.5600,"company":"Micron","node":"DRAM"},
    {"name":"Micron Singapur (NAND)","country":"Singapur","lat":1.3500,"lng":103.7000,"company":"Micron","node":"NAND"},
    {"name":"SMIC Shanghái (Lingang)","country":"China","lat":30.9000,"lng":121.9200,"company":"SMIC","node":"7nm"},
    {"name":"SMIC Pekín","country":"China","lat":40.0600,"lng":116.5000,"company":"SMIC","node":"14nm"},
    {"name":"SMIC Shenzhen","country":"China","lat":22.7000,"lng":113.8800,"company":"SMIC","node":"28nm"},
    {"name":"GlobalFoundries Dresden","country":"Alemania","lat":51.0900,"lng":13.6700,"company":"GlobalFoundries","node":"22nm"},
    {"name":"GlobalFoundries Malta (NY)","country":"EE. UU.","lat":42.9700,"lng":-73.7900,"company":"GlobalFoundries","node":"12nm"},
    {"name":"UMC Fab 12A (Tainan)","country":"Taiwán","lat":23.1000,"lng":120.2800,"company":"UMC","node":"14nm"},
    {"name":"YMTC Wuhan (NAND)","country":"China","lat":30.4900,"lng":114.4200,"company":"YMTC","node":"NAND"},
    {"name":"CXMT Hefei (DRAM)","country":"China","lat":31.8500,"lng":117.2200,"company":"CXMT","node":"DRAM"},
    {"name":"Kioxia/WD Yokkaichi","country":"Japón","lat":34.9700,"lng":136.6000,"company":"Kioxia","node":"NAND"},
    {"name":"Kioxia/WD Kitakami","country":"Japón","lat":39.2900,"lng":141.1100,"company":"Kioxia","node":"NAND"},
    {"name":"TI Sherman (SM1)","country":"EE. UU.","lat":33.6700,"lng":-96.5700,"company":"Texas Instruments","node":"analógico 300mm"},
    {"name":"Infineon Dresden","country":"Alemania","lat":51.1100,"lng":13.6800,"company":"Infineon","node":"potencia"},
    {"name":"Hua Hong Wuxi","country":"China","lat":31.5000,"lng":120.3000,"company":"Hua Hong","node":"28nm"},
    {"name":"PSMC Tongluo (P5)","country":"Taiwán","lat":24.5000,"lng":120.7800,"company":"PSMC","node":"28nm"}
  ],
  "nuclear": [
    {"name":"Kashiwazaki-Kariwa","country":"Japón","lat":37.4290,"lng":138.5970,"reactors":7,"mw":7965},
    {"name":"Hanul (Uljin)","country":"Corea del Sur","lat":37.0930,"lng":129.3830,"reactors":8,"mw":8261},
    {"name":"Kori","country":"Corea del Sur","lat":35.3210,"lng":129.2920,"reactors":7,"mw":7488},
    {"name":"Bruce","country":"Canadá","lat":44.3250,"lng":-81.5990,"reactors":8,"mw":6550},
    {"name":"Yangjiang","country":"China","lat":21.7050,"lng":112.2580,"reactors":6,"mw":6516},
    {"name":"Hongyanhe","country":"China","lat":39.7980,"lng":121.4790,"reactors":6,"mw":6244},
    {"name":"Fuqing","country":"China","lat":25.4470,"lng":119.4480,"reactors":6,"mw":6120},
    {"name":"Tianwan","country":"China","lat":34.6870,"lng":119.4600,"reactors":6,"mw":6070},
    {"name":"Hanbit (Yeonggwang)","country":"Corea del Sur","lat":35.4150,"lng":126.4170,"reactors":6,"mw":5875},
    {"name":"Ling Ao / Daya Bay","country":"China","lat":22.6000,"lng":114.5450,"reactors":6,"mw":5772},
    {"name":"Zaporiyia","country":"Ucrania","lat":47.5120,"lng":34.5850,"reactors":6,"mw":5700},
    {"name":"Gravelines","country":"Francia","lat":51.0150,"lng":2.1360,"reactors":6,"mw":5460},
    {"name":"Barakah","country":"Emiratos Árabes Unidos","lat":23.9690,"lng":52.2010,"reactors":4,"mw":5380},
    {"name":"Saeul (Shin-Kori)","country":"Corea del Sur","lat":35.3290,"lng":129.3060,"reactors":4,"mw":5360},
    {"name":"Paluel","country":"Francia","lat":49.8580,"lng":0.6350,"reactors":4,"mw":5320},
    {"name":"Cattenom","country":"Francia","lat":49.4160,"lng":6.2180,"reactors":4,"mw":5200},
    {"name":"Qinshan","country":"China","lat":30.4360,"lng":120.9560,"reactors":7,"mw":5038},
    {"name":"Wolsong","country":"Corea del Sur","lat":35.7130,"lng":129.4750,"reactors":6,"mw":4779},
    {"name":"Vogtle","country":"EE. UU.","lat":33.1430,"lng":-81.7610,"reactors":4,"mw":4536},
    {"name":"Akkuyu","country":"Turquía","lat":36.1450,"lng":33.5410,"reactors":4,"mw":4456},
    {"name":"Leningrado","country":"Rusia","lat":59.8470,"lng":29.0410,"reactors":4,"mw":4400},
    {"name":"Flamanville","country":"Francia","lat":49.5360,"lng":-1.8810,"reactors":3,"mw":4290},
    {"name":"Laxiwa","country":"China","lat":36.0500,"lng":101.1000,"reactors":2,"mw":4200},
    {"name":"Ningde","country":"China","lat":26.9890,"lng":120.0470,"reactors":4,"mw":4072},
    {"name":"Fangchenggang","country":"China","lat":21.6020,"lng":108.5630,"reactors":4,"mw":4000},
    {"name":"Palo Verde","country":"EE. UU.","lat":33.3880,"lng":-112.8650,"reactors":3,"mw":3937},
    {"name":"Rostov (Volgodonsk)","country":"Rusia","lat":47.5970,"lng":42.3690,"reactors":4,"mw":3922},
    {"name":"Balakovo","country":"Rusia","lat":52.0900,"lng":47.9540,"reactors":4,"mw":3800},
    {"name":"Kalinin","country":"Rusia","lat":57.9060,"lng":35.0560,"reactors":4,"mw":3800},
    {"name":"Kursk","country":"Rusia","lat":51.6760,"lng":35.6040,"reactors":4,"mw":3700},
    {"name":"Tricastin","country":"Francia","lat":44.3300,"lng":4.7320,"reactors":4,"mw":3660},
    {"name":"Bugey","country":"Francia","lat":45.7980,"lng":5.2700,"reactors":4,"mw":3580},
    {"name":"Dampierre","country":"Francia","lat":47.7330,"lng":2.5170,"reactors":4,"mw":3560},
    {"name":"Darlington","country":"Canadá","lat":43.8730,"lng":-78.7200,"reactors":4,"mw":3512},
    {"name":"Olkiluoto","country":"Finlandia","lat":61.2370,"lng":21.4400,"reactors":3,"mw":3310},
    {"name":"Taishan","country":"China","lat":21.9290,"lng":112.9820,"reactors":2,"mw":3300},
    {"name":"Browns Ferry","country":"EE. UU.","lat":34.7040,"lng":-87.1190,"reactors":3,"mw":3300},
    {"name":"Pickering","country":"Canadá","lat":43.8120,"lng":-79.0660,"reactors":6,"mw":3100},
    {"name":"Civaux","country":"Francia","lat":46.4570,"lng":0.6520,"reactors":2,"mw":2990},
    {"name":"Kakrapar","country":"India","lat":21.2360,"lng":73.3510,"reactors":4,"mw":2800},
    {"name":"South Texas Project","country":"EE. UU.","lat":28.7950,"lng":-96.0480,"reactors":2,"mw":2560},
    {"name":"Doel","country":"Bélgica","lat":51.3250,"lng":4.2590,"reactors":2,"mw":2080},
    {"name":"Tihange","country":"Bélgica","lat":50.5340,"lng":5.2740,"reactors":2,"mw":2000}
  ],
  "dams": [
    {"name":"Tres Gargantas","country":"China","lat":30.8230,"lng":111.0030,"mw":22500},
    {"name":"Baihetan","country":"China","lat":27.2160,"lng":102.9170,"mw":16000},
    {"name":"Itaipú","country":"Brasil/Paraguay","lat":-25.4080,"lng":-54.5890,"mw":14000},
    {"name":"Xiluodu","country":"China","lat":28.2510,"lng":103.6460,"mw":13860},
    {"name":"Belo Monte","country":"Brasil","lat":-3.1130,"lng":-51.7770,"mw":11233},
    {"name":"Guri (Simón Bolívar)","country":"Venezuela","lat":7.7660,"lng":-62.9970,"mw":10235},
    {"name":"Wudongde","country":"China","lat":26.3200,"lng":102.6300,"mw":10200},
    {"name":"Tucuruí","country":"Brasil","lat":-3.8320,"lng":-49.6440,"mw":8535},
    {"name":"Xiangjiaba","country":"China","lat":28.6420,"lng":104.3850,"mw":7750},
    {"name":"Grand Coulee","country":"EE. UU.","lat":47.9570,"lng":-118.9820,"mw":6809},
    {"name":"Longtan","country":"China","lat":25.0250,"lng":107.0350,"mw":6426},
    {"name":"Sayano-Shúshenskaya","country":"Rusia","lat":52.8280,"lng":91.3700,"mw":6400},
    {"name":"Krasnoyarsk","country":"Rusia","lat":55.9350,"lng":92.3000,"mw":6000},
    {"name":"Nuozhadu","country":"China","lat":22.6500,"lng":100.4400,"mw":5850},
    {"name":"Robert-Bourassa (LG-2)","country":"Canadá","lat":53.7920,"lng":-77.4410,"mw":5616},
    {"name":"Churchill Falls","country":"Canadá","lat":53.5350,"lng":-64.1010,"mw":5428},
    {"name":"Gran Presa del Renacimiento (GERD)","country":"Etiopía","lat":11.2150,"lng":35.0930,"mw":5150},
    {"name":"Tarbela","country":"Pakistán","lat":34.0890,"lng":72.6980,"mw":4888},
    {"name":"Jinping-II","country":"China","lat":28.2300,"lng":101.6500,"mw":4800},
    {"name":"Bratsk","country":"Rusia","lat":56.2900,"lng":101.7700,"mw":4500},
    {"name":"Xiaowan","country":"China","lat":24.7000,"lng":100.0900,"mw":4200},
    {"name":"Jinping-I","country":"China","lat":28.1850,"lng":101.6330,"mw":3600},
    {"name":"Pubugou","country":"China","lat":29.3400,"lng":102.6900,"mw":3600},
    {"name":"Ertan","country":"China","lat":26.8000,"lng":101.8000,"mw":3300},
    {"name":"Ilha Solteira","country":"Brasil","lat":-20.3830,"lng":-51.3620,"mw":3444},
    {"name":"Ust-Ilimsk","country":"Rusia","lat":58.0000,"lng":102.6700,"mw":3840},
    {"name":"W.A.C. Bennett","country":"Canadá","lat":56.0190,"lng":-122.2000,"mw":2876},
    {"name":"Mica","country":"Canadá","lat":52.0780,"lng":-118.5650,"mw":2805},
    {"name":"Gezhouba","country":"China","lat":30.7370,"lng":111.2740,"mw":2715},
    {"name":"Daniel-Johnson (Manic-5)","country":"Canadá","lat":50.6470,"lng":-68.7320,"mw":2660},
    {"name":"Chief Joseph","country":"EE. UU.","lat":47.9950,"lng":-119.6360,"mw":2620},
    {"name":"Atatürk","country":"Turquía","lat":37.4810,"lng":38.3210,"mw":2400},
    {"name":"Bakun","country":"Malasia","lat":2.7480,"lng":114.0630,"mw":2400},
    {"name":"Karun-3","country":"Irán","lat":31.9300,"lng":50.2700,"mw":2280},
    {"name":"Aswan (presa alta)","country":"Egipto","lat":23.9710,"lng":32.8770,"mw":2100},
    {"name":"Hoover","country":"EE. UU.","lat":36.0160,"lng":-114.7370,"mw":2080}
  ]
}
