{
  "ixps": [
    {"name":"IX.br São Paulo","city":"São Paulo","country":"Brasil","lat":-23.5505,"lng":-46.6333,"peak_tbps":25},
    {"name":"DE-CIX Fráncfort","city":"Fráncfort","country":"Alemania","lat":50.1109,"lng":8.6821,"peak_tbps":18.7},
    {"name":"AMS-IX","city":"Ámsterdam","country":"Países Bajos","lat":52.3676,"lng":4.9041,"peak_tbps":14.2},
    {"name":"LINX London","city":"Londres","country":"Reino Unido","lat":51.5074,"lng":-0.1278,"peak_tbps":11},
    {"name":"MSK-IX","city":"Moscú","country":"Rusia","lat":55.7558,"lng":37.6173,"peak_tbps":7.7},
    {"name":"JPNAP Tokio","city":"Tokio","country":"Japón","lat":35.6762,"lng":139.6503,"peak_tbps":6.6},
    {"name":"NL-ix","city":"Ámsterdam","country":"Países Bajos","lat":52.3702,"lng":4.8952,"peak_tbps":6},
    {"name":"NAPAfrica JINX","city":"Johannesburgo","country":"Sudáfrica","lat":-26.2041,"lng":28.0473,"peak_tbps":4},
    {"name":"SIX Seattle","city":"Seattle","country":"EE. UU.","lat":47.6062,"lng":-122.3321,"peak_tbps":3.5},
    {"name":"France-IX Paris","city":"París","country":"Francia","lat":48.8566,"lng":2.3522,"peak_tbps":3.4},
    {"name":"NIX.CZ","city":"Praga","country":"Chequia","lat":50.0755,"lng":14.4378,"peak_tbps":3.2},
    {"name":"PTT.br Río de Janeiro","city":"Río de Janeiro","country":"Brasil","lat":-22.9068,"lng":-43.1729,"peak_tbps":3},
    {"name":"HKIX","city":"Hong Kong","country":"China","lat":22.3193,"lng":114.1694,"peak_tbps":3},
    {"name":"MIX Milán","city":"Milán","country":"Italia","lat":45.4642,"lng":9.19,"peak_tbps":3},
    {"name":"PIT Chile","city":"Santiago","country":"Chile","lat":-33.4489,"lng":-70.6693,"peak_tbps":3},
    {"name":"JPIX Tokio","city":"Tokio","country":"Japón","lat":35.6895,"lng":139.6917,"peak_tbps":2.6},
    {"name":"Equinix IX Ashburn","city":"Ashburn","country":"EE. UU.","lat":39.0438,"lng":-77.4874,"peak_tbps":2.5},
    {"name":"DTEL-IX","city":"Kiev","country":"Ucrania","lat":50.4501,"lng":30.5234,"peak_tbps":2.5},
    {"name":"Netnod","city":"Estocolmo","country":"Suecia","lat":59.3293,"lng":18.0686,"peak_tbps":2.3},
    {"name":"China Telecom CN-IX","city":"Pekín","country":"China","lat":39.9042,"lng":116.4074,"peak_tbps":2},
    {"name":"TorIX","city":"Toronto","country":"Canadá","lat":43.6532,"lng":-79.3832,"peak_tbps":1.9},
    {"name":"BIX","city":"Budapest","country":"Hungría","lat":47.4979,"lng":19.0402,"peak_tbps":1.7},
    {"name":"ESPANIX","city":"Madrid","country":"España","lat":40.4168,"lng":-3.7038,"peak_tbps":1.6},
    {"name":"DE-CIX Marsella","city":"Marsella","country":"Francia","lat":43.2965,"lng":5.3698,"peak_tbps":1.5},
    {"name":"SwissIX","city":"Zúrich","country":"Suiza","lat":47.3769,"lng":8.5417,"peak_tbps":1.5},
    {"name":"BBIX Tokio","city":"Tokio","country":"Japón","lat":35.6586,"lng":139.7454,"peak_tbps":1.5},
    {"name":"Equinix Mumbai","city":"Bombay","country":"India","lat":19.076,"lng":72.8777,"peak_tbps":1.5},
    {"name":"VIX Viena","city":"Viena","country":"Austria","lat":48.2082,"lng":16.3738,"peak_tbps":1.4},
    {"name":"DE-CIX Madrid","city":"Madrid","country":"España","lat":40.42,"lng":-3.705,"peak_tbps":1.2},
    {"name":"DE-CIX Nueva York","city":"Nueva York","country":"EE. UU.","lat":40.7128,"lng":-74.006,"peak_tbps":1},
    {"name":"KINX","city":"Seúl","country":"Corea del Sur","lat":37.5665,"lng":126.978,"peak_tbps":1},
    {"name":"Equinix Singapur","city":"Singapur","country":"Singapur","lat":1.3521,"lng":103.8198,"peak_tbps":1},
    {"name":"DE-CIX Estambul","city":"Estambul","country":"Turquía","lat":41.0082,"lng":28.9784,"peak_tbps":1},
    {"name":"DE-CIX Dallas","city":"Dallas","country":"EE. UU.","lat":32.7767,"lng":-96.797,"peak_tbps":1},
    {"name":"UAE-IX","city":"Dubái","country":"Emiratos Árabes Unidos","lat":25.2048,"lng":55.2708,"peak_tbps":0.9},
    {"name":"BCIX","city":"Berlín","country":"Alemania","lat":52.52,"lng":13.405,"peak_tbps":0.9},
    {"name":"LONAP","city":"Londres","country":"Reino Unido","lat":51.5155,"lng":-0.0922,"peak_tbps":0.8},
    {"name":"Any2 Los Ángeles","city":"Los Ángeles","country":"EE. UU.","lat":34.0522,"lng":-118.2437,"peak_tbps":0.5},
    {"name":"INEX","city":"Dublín","country":"Irlanda","lat":53.3498,"lng":-6.2603,"peak_tbps":0.5}
  ],
  "landings": [
    {"name":"Marsella (hub mediterráneo)","city":"Marsella","country":"Francia","lat":43.2965,"lng":5.3698},
    {"name":"Abu Talat (Alejandría)","city":"Alejandría","country":"Egipto","lat":31.0833,"lng":29.7667},
    {"name":"Zafarana (Mar Rojo)","city":"Zafarana","country":"Egipto","lat":29.1167,"lng":32.6333},
    {"name":"Fortaleza (Praia do Futuro)","city":"Fortaleza","country":"Brasil","lat":-3.7319,"lng":-38.5267},
    {"name":"Praia Grande","city":"Praia Grande","country":"Brasil","lat":-24.0058,"lng":-46.4028},
    {"name":"Tuas","city":"Tuas","country":"Singapur","lat":1.2966,"lng":103.6361},
    {"name":"Changi North","city":"Changi","country":"Singapur","lat":1.3899,"lng":103.9899},
    {"name":"Tseung Kwan O (TKO)","city":"Hong Kong","country":"China","lat":22.3074,"lng":114.2604},
    {"name":"Chung Hom Kok","city":"Hong Kong","country":"China","lat":22.2114,"lng":114.2017},
    {"name":"Versova (Bombay)","city":"Bombay","country":"India","lat":19.1331,"lng":72.8019},
    {"name":"Chennai (Santhome)","city":"Chennai","country":"India","lat":13.0339,"lng":80.2789},
    {"name":"Hillsboro (Oregón)","city":"Hillsboro","country":"EE. UU.","lat":45.5229,"lng":-122.9898},
    {"name":"Virginia Beach","city":"Virginia Beach","country":"EE. UU.","lat":36.8529,"lng":-75.978},
    {"name":"Manasquan (Nueva Jersey)","city":"Manasquan","country":"EE. UU.","lat":40.1234,"lng":-74.0457},
    {"name":"Tuckerton (Nueva Jersey)","city":"Tuckerton","country":"EE. UU.","lat":39.6037,"lng":-74.3416},
    {"name":"Shirley (Nueva York)","city":"Shirley","country":"EE. UU.","lat":40.7948,"lng":-72.8662},
    {"name":"Bude (Cornualles)","city":"Bude","country":"Reino Unido","lat":50.8295,"lng":-4.5436},
    {"name":"Sines","city":"Sines","country":"Portugal","lat":37.9561,"lng":-8.8643},
    {"name":"Carcavelos (Lisboa)","city":"Lisboa","country":"Portugal","lat":38.6833,"lng":-9.3333},
    {"name":"Sopelana (Bilbao)","city":"Bilbao","country":"España","lat":43.3833,"lng":-2.9833},
    {"name":"Conil de la Frontera","city":"Conil","country":"España","lat":36.2756,"lng":-6.0894},
    {"name":"Barcelona","city":"Barcelona","country":"España","lat":41.3851,"lng":2.1734},
    {"name":"Mazara del Vallo","city":"Mazara del Vallo","country":"Italia","lat":37.6536,"lng":12.5897},
    {"name":"Catania","city":"Catania","country":"Italia","lat":37.5079,"lng":15.083},
    {"name":"Penmarch","city":"Penmarch","country":"Francia","lat":47.8108,"lng":-4.3739},
    {"name":"Norden","city":"Norden","country":"Alemania","lat":53.5972,"lng":7.2056},
    {"name":"Chikura (Tokio)","city":"Chikura","country":"Japón","lat":34.9333,"lng":139.95},
    {"name":"Shima","city":"Shima","country":"Japón","lat":34.3333,"lng":136.8167},
    {"name":"Toucheng (Taiwán)","city":"Toucheng","country":"Taiwán","lat":24.8589,"lng":121.8236},
    {"name":"Busan","city":"Busan","country":"Corea del Sur","lat":35.1796,"lng":129.0756},
    {"name":"Shantou","city":"Shantou","country":"China","lat":23.3535,"lng":116.6822},
    {"name":"Qingdao","city":"Qingdao","country":"China","lat":36.0671,"lng":120.3826},
    {"name":"Melkbosstrand (Ciudad del Cabo)","city":"Ciudad del Cabo","country":"Sudáfrica","lat":-33.7244,"lng":18.4419},
    {"name":"Mtunzini","city":"Mtunzini","country":"Sudáfrica","lat":-28.95,"lng":31.75},
    {"name":"Yanbu (Mar Rojo)","city":"Yanbu","country":"Arabia Saudí","lat":24.0895,"lng":38.0618},
    {"name":"Yeda","city":"Yeda","country":"Arabia Saudí","lat":21.4858,"lng":39.1925},
    {"name":"Fujairah","city":"Fujairah","country":"Emiratos Árabes Unidos","lat":25.1288,"lng":56.3265},
    {"name":"Karachi (Hawke's Bay)","city":"Karachi","country":"Pakistán","lat":24.8607,"lng":67.0011}
  ],
  "shutdowns": [
    {"country":"Sudán","place":"Wad Madani (apagón de un año)","lat":14.4012,"lng":33.5199,"date":"dic 2023","cause":"guerra"},
    {"country":"Sudán","place":"Jartum (centros de datos tomados por las RSF)","lat":15.5007,"lng":32.5599,"date":"feb 2024","cause":"guerra"},
    {"country":"Bangladés","place":"Daca (apagón de 10-11 días)","lat":23.8103,"lng":90.4125,"date":"jul 2024","cause":"protesta"},
    {"country":"Venezuela","place":"Caracas (bloqueo postelectoral)","lat":10.4806,"lng":-66.9036,"date":"ago 2024","cause":"elecciones"},
    {"country":"Pakistán","place":"Islamabad (marcha del PTI)","lat":33.6844,"lng":73.0479,"date":"nov 2024","cause":"protesta"},
    {"country":"Myanmar","place":"Estado de Rakáin (Sittwe)","lat":20.1457,"lng":92.8986,"date":"nov 2024","cause":"guerra"},
    {"country":"India","place":"Manipur (Imphal, conflicto étnico)","lat":24.817,"lng":93.9368,"date":"nov 2024","cause":"protesta"},
    {"country":"Mozambique","place":"Maputo (protestas electorales)","lat":-25.9692,"lng":32.5732,"date":"nov 2024","cause":"elecciones"},
    {"country":"Irán","place":"Teherán (corte nacional tras ataques)","lat":35.6892,"lng":51.389,"date":"jun 2025","cause":"guerra"},
    {"country":"Irak","place":"Bagdad (exámenes nacionales)","lat":33.3152,"lng":44.3661,"date":"jun 2025","cause":"exámenes"},
    {"country":"Argelia","place":"Argel (exámenes de bachillerato)","lat":36.7538,"lng":3.0588,"date":"jun 2025","cause":"exámenes"},
    {"country":"Siria","place":"Damasco (exámenes de bachillerato)","lat":33.5138,"lng":36.2765,"date":"jul 2025","cause":"exámenes"},
    {"country":"Siria","place":"Sweida (enfrentamientos sectarios)","lat":32.7081,"lng":36.5694,"date":"jul 2025","cause":"guerra"},
    {"country":"Libia","place":"Trípoli (orden gubernamental)","lat":32.8872,"lng":13.1913,"date":"may 2025","cause":"orden gubernamental"},
    {"country":"Panamá","place":"Bocas del Toro (protestas)","lat":9.34,"lng":-82.2419,"date":"jun 2025","cause":"protesta"},
    {"country":"Kenia","place":"Nairobi (protestas)","lat":-1.2864,"lng":36.8172,"date":"jun 2025","cause":"protesta"},
    {"country":"Nepal","place":"Katmandú (protestas Gen Z)","lat":27.7172,"lng":85.324,"date":"sep 2025","cause":"protesta"},
    {"country":"Guinea","place":"Conakri (referéndum constitucional)","lat":9.6412,"lng":-13.5784,"date":"sep 2025","cause":"elecciones"},
    {"country":"Tanzania","place":"Dodoma (apagón electoral)","lat":-6.1722,"lng":35.7395,"date":"oct 2025","cause":"elecciones"},
    {"country":"Camerún","place":"Yaundé (restricciones electorales)","lat":3.848,"lng":11.5021,"date":"oct 2025","cause":"elecciones"},
    {"country":"Irán","place":"Teherán (apagón nacional)","lat":35.6892,"lng":51.389,"date":"ene 2026","cause":"protesta"}
  ]
}
